{
    "1": {
        "stop_code": "1",
        "stop_name": "Turun satama (Silja)",
        "stop_desc": "",
        "stop_lat": 60.43497,
        "stop_lon": 22.21966,
        "zone_id": "F\u00d6LI",
        "stop_url": "",
        "location_type": 0,
        "parent_station": 0,
        "stop_timezone": "Europe\/Helsinki",
        "wheelchair_boarding": 0
    },
    "10": {
        "stop_code": "10",
        "stop_name": "Sairashuoneenpuisto",
        "stop_desc": "",
        "stop_lat": 60.44419,
        "stop_lon": 22.25233,
        "zone_id": "F\u00d6LI",
        "stop_url": "",
        "location_type": 0,
        "parent_station": 0,
        "stop_timezone": "Europe\/Helsinki",
        "wheelchair_boarding": 0
    },
    "100": {
        "stop_code": "100",
        "stop_name": "W\u00e4rtsil\u00e4npolku",
        "stop_desc": "",
        "stop_lat": 60.43482,
        "stop_lon": 22.24423,
        "zone_id": "F\u00d6LI",
        "stop_url": "",
        "location_type": 0,
        "parent_station": 0,
        "stop_timezone": "Europe\/Helsinki",
        "wheelchair_boarding": 0
    },
    "1000": {
        "stop_code": "1000",
        "stop_name": "Takamaantie",
        "stop_desc": "",
        "stop_lat": 60.43086,
        "stop_lon": 22.27303,
        "zone_id": "F\u00d6LI",
        "stop_url": "",
        "location_type": 0,
        "parent_station": 0,
        "stop_timezone": "Europe\/Helsinki",
        "wheelchair_boarding": 0
    },
    "1001": {
        "stop_code": "1001",
        "stop_name": "J\u00e4k\u00e4l\u00e4polku",
        "stop_desc": "",
        "stop_lat": 60.42836,
        "stop_lon": 22.27117,
        "zone_id": "F\u00d6LI",
        "stop_url": "",
        "location_type": 0,
        "parent_station": 0,
        "stop_timezone": "Europe\/Helsinki",
        "wheelchair_boarding": 0
    },
    "1002": {
        "stop_code": "1002",
        "stop_name": "Rieskal\u00e4hteentie",
        "stop_desc": "",
        "stop_lat": 60.47095,
        "stop_lon": 22.26396,
        "zone_id": "F\u00d6LI",
        "stop_url": "",
        "location_type": 0,
        "parent_station": 0,
        "stop_timezone": "Europe\/Helsinki",
        "wheelchair_boarding": 0
    },
    "1003": {
        "stop_code": "1003",
        "stop_name": "Konevarikko",
        "stop_desc": "",
        "stop_lat": 60.47539,
        "stop_lon": 22.25687,
        "zone_id": "F\u00d6LI",
        "stop_url": "",
        "location_type": 0,
        "parent_station": 0,
        "stop_timezone": "Europe\/Helsinki",
        "wheelchair_boarding": 0
    },
    "1004": {
        "stop_code": "1004",
        "stop_name": "Rieskal\u00e4hteentie",
        "stop_desc": "",
        "stop_lat": 60.47067,
        "stop_lon": 22.26409,
        "zone_id": "F\u00d6LI",
        "stop_url": "",
        "location_type": 0,
        "parent_station": 0,
        "stop_timezone": "Europe\/Helsinki",
        "wheelchair_boarding": 0
    },
    "1008": {
        "stop_code": "1008",
        "stop_name": "Takamaantie",
        "stop_desc": "",
        "stop_lat": 60.43792,
        "stop_lon": 22.2879,
        "zone_id": "F\u00d6LI",
        "stop_url": "",
        "location_type": 0,
        "parent_station": 0,
        "stop_timezone": "Europe\/Helsinki",
        "wheelchair_boarding": 0
    },
    "1009": {
        "stop_code": "1009",
        "stop_name": "Kanslerintie",
        "stop_desc": "",
        "stop_lat": 60.44563,
        "stop_lon": 22.222,
        "zone_id": "F\u00d6LI",
        "stop_url": "",
        "location_type": 0,
        "parent_station": 0,
        "stop_timezone": "Europe\/Helsinki",
        "wheelchair_boarding": 0
    },
    "101": {
        "stop_code": "101",
        "stop_name": "Merimiehenkatu",
        "stop_desc": "",
        "stop_lat": 60.43629,
        "stop_lon": 22.24864,
        "zone_id": "F\u00d6LI",
        "stop_url": "",
        "location_type": 0,
        "parent_station": 0,
        "stop_timezone": "Europe\/Helsinki",
        "wheelchair_boarding": 0
    },
    "1012": {
        "stop_code": "1012",
        "stop_name": "Vienola",
        "stop_desc": "",
        "stop_lat": 60.45506,
        "stop_lon": 22.20306,
        "zone_id": "F\u00d6LI",
        "stop_url": "",
        "location_type": 0,
        "parent_station": 0,
        "stop_timezone": "Europe\/Helsinki",
        "wheelchair_boarding": 0
    },
    "1013": {
        "stop_code": "1013",
        "stop_name": "Parolanpuisto",
        "stop_desc": "",
        "stop_lat": 60.49207,
        "stop_lon": 22.26232,
        "zone_id": "F\u00d6LI",
        "stop_url": "",
        "location_type": 0,
        "parent_station": 0,
        "stop_timezone": "Europe\/Helsinki",
        "wheelchair_boarding": 0
    },
    "1014": {
        "stop_code": "1014",
        "stop_name": "Kiikku",
        "stop_desc": "",
        "stop_lat": 60.49124,
        "stop_lon": 22.26685,
        "zone_id": "F\u00d6LI",
        "stop_url": "",
        "location_type": 0,
        "parent_station": 0,
        "stop_timezone": "Europe\/Helsinki",
        "wheelchair_boarding": 0
    },
    "1015": {
        "stop_code": "1015",
        "stop_name": "Runosm\u00e4ki",
        "stop_desc": "",
        "stop_lat": 60.48926,
        "stop_lon": 22.26872,
        "zone_id": "F\u00d6LI",
        "stop_url": "",
        "location_type": 0,
        "parent_station": 0,
        "stop_timezone": "Europe\/Helsinki",
        "wheelchair_boarding": 0
    },
    "1016": {
        "stop_code": "1016",
        "stop_name": "Logomo",
        "stop_desc": "",
        "stop_lat": 60.45739,
        "stop_lon": 22.25414,
        "zone_id": "F\u00d6LI",
        "stop_url": "",
        "location_type": 0,
        "parent_station": 0,
        "stop_timezone": "Europe\/Helsinki",
        "wheelchair_boarding": 0
    },
    "1017": {
        "stop_code": "1017",
        "stop_name": "Logomo",
        "stop_desc": "",
        "stop_lat": 60.45791,
        "stop_lon": 22.25616,
        "zone_id": "F\u00d6LI",
        "stop_url": "",
        "location_type": 0,
        "parent_station": 0,
        "stop_timezone": "Europe\/Helsinki",
        "wheelchair_boarding": 0
    },
    "1018": {
        "stop_code": "1018",
        "stop_name": "V\u00e4h\u00e4heikkil\u00e4ntie",
        "stop_desc": "",
        "stop_lat": 60.43972,
        "stop_lon": 22.28215,
        "zone_id": "F\u00d6LI",
        "stop_url": "",
        "location_type": 0,
        "parent_station": 0,
        "stop_timezone": "Europe\/Helsinki",
        "wheelchair_boarding": 0
    },
    "102": {
        "stop_code": "102",
        "stop_name": "Tonttum\u00e4ki",
        "stop_desc": "",
        "stop_lat": 60.43733,
        "stop_lon": 22.25169,
        "zone_id": "F\u00d6LI",
        "stop_url": "",
        "location_type": 0,
        "parent_station": 0,
        "stop_timezone": "Europe\/Helsinki",
        "wheelchair_boarding": 0
    },
    "1020": {
        "stop_code": "1020",
        "stop_name": "Vienola",
        "stop_desc": "",
        "stop_lat": 60.45512,
        "stop_lon": 22.20329,
        "zone_id": "F\u00d6LI",
        "stop_url": "",
        "location_type": 0,
        "parent_station": 0,
        "stop_timezone": "Europe\/Helsinki",
        "wheelchair_boarding": 0
    },
    "1021": {
        "stop_code": "1021",
        "stop_name": "Lukoilantie",
        "stop_desc": "",
        "stop_lat": 60.46637,
        "stop_lon": 22.23371,
        "zone_id": "F\u00d6LI",
        "stop_url": "",
        "location_type": 0,
        "parent_station": 0,
        "stop_timezone": "Europe\/Helsinki",
        "wheelchair_boarding": 0
    },
    "1022": {
        "stop_code": "1022",
        "stop_name": "Ruohonp\u00e4\u00e4nkatu",
        "stop_desc": "",
        "stop_lat": 60.46402,
        "stop_lon": 22.24158,
        "zone_id": "F\u00d6LI",
        "stop_url": "",
        "location_type": 0,
        "parent_station": 0,
        "stop_timezone": "Europe\/Helsinki",
        "wheelchair_boarding": 0
    },
    "1023": {
        "stop_code": "1023",
        "stop_name": "Untolankatu",
        "stop_desc": "",
        "stop_lat": 60.46078,
        "stop_lon": 22.24604,
        "zone_id": "F\u00d6LI",
        "stop_url": "",
        "location_type": 0,
        "parent_station": 0,
        "stop_timezone": "Europe\/Helsinki",
        "wheelchair_boarding": 0
    },
    "1024": {
        "stop_code": "1024",
        "stop_name": "It\u00e4pellonkatu",
        "stop_desc": "",
        "stop_lat": 60.45881,
        "stop_lon": 22.2466,
        "zone_id": "F\u00d6LI",
        "stop_url": "",
        "location_type": 0,
        "parent_station": 0,
        "stop_timezone": "Europe\/Helsinki",
        "wheelchair_boarding": 0
    },
    "1025": {
        "stop_code": "1025",
        "stop_name": "K\u00e4h\u00e4rintie",
        "stop_desc": "",
        "stop_lat": 60.45698,
        "stop_lon": 22.24834,
        "zone_id": "F\u00d6LI",
        "stop_url": "",
        "location_type": 0,
        "parent_station": 0,
        "stop_timezone": "Europe\/Helsinki",
        "wheelchair_boarding": 0
    },
    "1026": {
        "stop_code": "1026",
        "stop_name": "Paasirinne",
        "stop_desc": "",
        "stop_lat": 60.45609,
        "stop_lon": 22.25089,
        "zone_id": "F\u00d6LI",
        "stop_url": "",
        "location_type": 0,
        "parent_station": 0,
        "stop_timezone": "Europe\/Helsinki",
        "wheelchair_boarding": 0
    },
    "1028": {
        "stop_code": "1028",
        "stop_name": "Yrj\u00e4n\u00e4naukio",
        "stop_desc": "",
        "stop_lat": 60.45973,
        "stop_lon": 22.26363,
        "zone_id": "F\u00d6LI",
        "stop_url": "",
        "location_type": 0,
        "parent_station": 0,
        "stop_timezone": "Europe\/Helsinki",
        "wheelchair_boarding": 0
    },
    "1029": {
        "stop_code": "1029",
        "stop_name": "Ieskatu",
        "stop_desc": "",
        "stop_lat": 60.46284,
        "stop_lon": 22.20074,
        "zone_id": "F\u00d6LI",
        "stop_url": "",
        "location_type": 0,
        "parent_station": 0,
        "stop_timezone": "Europe\/Helsinki",
        "wheelchair_boarding": 0
    },
    "103": {
        "stop_code": "103",
        "stop_name": "Tiilentekij\u00e4nkatu",
        "stop_desc": "",
        "stop_lat": 60.43866,
        "stop_lon": 22.25559,
        "zone_id": "F\u00d6LI",
        "stop_url": "",
        "location_type": 0,
        "parent_station": 0,
        "stop_timezone": "Europe\/Helsinki",
        "wheelchair_boarding": 0
    },
    "1030": {
        "stop_code": "1030",
        "stop_name": "TYKS A-sairaala",
        "stop_desc": "",
        "stop_lat": 60.4521,
        "stop_lon": 22.28848,
        "zone_id": "F\u00d6LI",
        "stop_url": "",
        "location_type": 0,
        "parent_station": 0,
        "stop_timezone": "Europe\/Helsinki",
        "wheelchair_boarding": 0
    },
    "1031": {
        "stop_code": "1031",
        "stop_name": "Hammasklinikka",
        "stop_desc": "",
        "stop_lat": 60.45011,
        "stop_lon": 22.29119,
        "zone_id": "F\u00d6LI",
        "stop_url": "",
        "location_type": 0,
        "parent_station": 0,
        "stop_timezone": "Europe\/Helsinki",
        "wheelchair_boarding": 0
    },
    "1032": {
        "stop_code": "1032",
        "stop_name": "Datacity",
        "stop_desc": "",
        "stop_lat": 60.44832,
        "stop_lon": 22.29413,
        "zone_id": "F\u00d6LI",
        "stop_url": "",
        "location_type": 0,
        "parent_station": 0,
        "stop_timezone": "Europe\/Helsinki",
        "wheelchair_boarding": 0
    },
    "1033": {
        "stop_code": "1033",
        "stop_name": "Urheiluhalli",
        "stop_desc": "",
        "stop_lat": 60.44694,
        "stop_lon": 22.29757,
        "zone_id": "F\u00d6LI",
        "stop_url": "",
        "location_type": 0,
        "parent_station": 0,
        "stop_timezone": "Europe\/Helsinki",
        "wheelchair_boarding": 0
    },
    "1034": {
        "stop_code": "1034",
        "stop_name": "Kupittaan palloiluhalli",
        "stop_desc": "",
        "stop_lat": 60.44505,
        "stop_lon": 22.30232,
        "zone_id": "F\u00d6LI",
        "stop_url": "",
        "location_type": 0,
        "parent_station": 0,
        "stop_timezone": "Europe\/Helsinki",
        "wheelchair_boarding": 0
    },
    "1035": {
        "stop_code": "1035",
        "stop_name": "Miljoonatie",
        "stop_desc": "",
        "stop_lat": 60.70117,
        "stop_lon": 22.44125,
        "zone_id": "F\u00d6LI",
        "stop_url": "",
        "location_type": 0,
        "parent_station": 0,
        "stop_timezone": "Europe\/Helsinki",
        "wheelchair_boarding": 0
    },
    "1036": {
        "stop_code": "1036",
        "stop_name": "Hippoksentie",
        "stop_desc": "",
        "stop_lat": 60.44364,
        "stop_lon": 22.3057,
        "zone_id": "F\u00d6LI",
        "stop_url": "",
        "location_type": 0,
        "parent_station": 0,
        "stop_timezone": "Europe\/Helsinki",
        "wheelchair_boarding": 0
    },
    "1037": {
        "stop_code": "1037",
        "stop_name": "Vaapukkatie",
        "stop_desc": "",
        "stop_lat": 60.4421,
        "stop_lon": 22.30966,
        "zone_id": "F\u00d6LI",
        "stop_url": "",
        "location_type": 0,
        "parent_station": 0,
        "stop_timezone": "Europe\/Helsinki",
        "wheelchair_boarding": 0
    },
    "1038": {
        "stop_code": "1038",
        "stop_name": "Alhomaantie",
        "stop_desc": "",
        "stop_lat": 60.69425,
        "stop_lon": 22.44142,
        "zone_id": "F\u00d6LI",
        "stop_url": "",
        "location_type": 0,
        "parent_station": 0,
        "stop_timezone": "Europe\/Helsinki",
        "wheelchair_boarding": 0
    },
    "1039": {
        "stop_code": "1039",
        "stop_name": "Alhomaantie",
        "stop_desc": "",
        "stop_lat": 60.69364,
        "stop_lon": 22.4412,
        "zone_id": "F\u00d6LI",
        "stop_url": "",
        "location_type": 0,
        "parent_station": 0,
        "stop_timezone": "Europe\/Helsinki",
        "wheelchair_boarding": 0
    },
    "104": {
        "stop_code": "104",
        "stop_name": "Martinkirkko",
        "stop_desc": "",
        "stop_lat": 60.43997,
        "stop_lon": 22.25702,
        "zone_id": "F\u00d6LI",
        "stop_url": "",
        "location_type": 0,
        "parent_station": 0,
        "stop_timezone": "Europe\/Helsinki",
        "wheelchair_boarding": 0
    },
    "1040": {
        "stop_code": "1040",
        "stop_name": "Vaapukkatie",
        "stop_desc": "",
        "stop_lat": 60.44176,
        "stop_lon": 22.31089,
        "zone_id": "F\u00d6LI",
        "stop_url": "",
        "location_type": 0,
        "parent_station": 0,
        "stop_timezone": "Europe\/Helsinki",
        "wheelchair_boarding": 0
    },
    "1041": {
        "stop_code": "1041",
        "stop_name": "Karhunaukio",
        "stop_desc": "",
        "stop_lat": 60.4309,
        "stop_lon": 22.33645,
        "zone_id": "F\u00d6LI",
        "stop_url": "",
        "location_type": 0,
        "parent_station": 0,
        "stop_timezone": "Europe\/Helsinki",
        "wheelchair_boarding": 0
    },
    "1042": {
        "stop_code": "1042",
        "stop_name": "Hippoksentie",
        "stop_desc": "",
        "stop_lat": 60.44357,
        "stop_lon": 22.30639,
        "zone_id": "F\u00d6LI",
        "stop_url": "",
        "location_type": 0,
        "parent_station": 0,
        "stop_timezone": "Europe\/Helsinki",
        "wheelchair_boarding": 0
    },
    "1043": {
        "stop_code": "1043",
        "stop_name": "Miljoonatie",
        "stop_desc": "",
        "stop_lat": 60.70052,
        "stop_lon": 22.44105,
        "zone_id": "F\u00d6LI",
        "stop_url": "",
        "location_type": 0,
        "parent_station": 0,
        "stop_timezone": "Europe\/Helsinki",
        "wheelchair_boarding": 0
    },
    "1044": {
        "stop_code": "1044",
        "stop_name": "Kupittaan palloiluhalli",
        "stop_desc": "",
        "stop_lat": 60.44598,
        "stop_lon": 22.30042,
        "zone_id": "F\u00d6LI",
        "stop_url": "",
        "location_type": 0,
        "parent_station": 0,
        "stop_timezone": "Europe\/Helsinki",
        "wheelchair_boarding": 0
    },
    "1045": {
        "stop_code": "1045",
        "stop_name": "Urheiluhalli",
        "stop_desc": "",
        "stop_lat": 60.4473,
        "stop_lon": 22.2971,
        "zone_id": "F\u00d6LI",
        "stop_url": "",
        "location_type": 0,
        "parent_station": 0,
        "stop_timezone": "Europe\/Helsinki",
        "wheelchair_boarding": 0
    },
    "1046": {
        "stop_code": "1046",
        "stop_name": "Datacity",
        "stop_desc": "",
        "stop_lat": 60.44852,
        "stop_lon": 22.29384,
        "zone_id": "F\u00d6LI",
        "stop_url": "",
        "location_type": 0,
        "parent_station": 0,
        "stop_timezone": "Europe\/Helsinki",
        "wheelchair_boarding": 0
    },
    "1047": {
        "stop_code": "1047",
        "stop_name": "Hammasklinikka",
        "stop_desc": "",
        "stop_lat": 60.45002,
        "stop_lon": 22.2916,
        "zone_id": "F\u00d6LI",
        "stop_url": "",
        "location_type": 0,
        "parent_station": 0,
        "stop_timezone": "Europe\/Helsinki",
        "wheelchair_boarding": 0
    },
    "1048": {
        "stop_code": "1048",
        "stop_name": "TYKS A-sairaala",
        "stop_desc": "",
        "stop_lat": 60.45207,
        "stop_lon": 22.28872,
        "zone_id": "F\u00d6LI",
        "stop_url": "",
        "location_type": 0,
        "parent_station": 0,
        "stop_timezone": "Europe\/Helsinki",
        "wheelchair_boarding": 0
    },
    "105": {
        "stop_code": "105",
        "stop_name": "Martinsilta",
        "stop_desc": "",
        "stop_lat": 60.44383,
        "stop_lon": 22.25665,
        "zone_id": "F\u00d6LI",
        "stop_url": "",
        "location_type": 0,
        "parent_station": 0,
        "stop_timezone": "Europe\/Helsinki",
        "wheelchair_boarding": 0
    },
    "1050": {
        "stop_code": "1050",
        "stop_name": "Yrj\u00e4n\u00e4naukio",
        "stop_desc": "",
        "stop_lat": 60.45984,
        "stop_lon": 22.26391,
        "zone_id": "F\u00d6LI",
        "stop_url": "",
        "location_type": 0,
        "parent_station": 0,
        "stop_timezone": "Europe\/Helsinki",
        "wheelchair_boarding": 0
    },
    "1051": {
        "stop_code": "1051",
        "stop_name": "Juhannuskukkula",
        "stop_desc": "",
        "stop_lat": 60.45876,
        "stop_lon": 22.25822,
        "zone_id": "F\u00d6LI",
        "stop_url": "",
        "location_type": 0,
        "parent_station": 0,
        "stop_timezone": "Europe\/Helsinki",
        "wheelchair_boarding": 0
    },
    "1052": {
        "stop_code": "1052",
        "stop_name": "Paasirinne",
        "stop_desc": "",
        "stop_lat": 60.45622,
        "stop_lon": 22.2506,
        "zone_id": "F\u00d6LI",
        "stop_url": "",
        "location_type": 0,
        "parent_station": 0,
        "stop_timezone": "Europe\/Helsinki",
        "wheelchair_boarding": 0
    },
    "1053": {
        "stop_code": "1053",
        "stop_name": "K\u00e4h\u00e4rintie",
        "stop_desc": "",
        "stop_lat": 60.45701,
        "stop_lon": 22.24838,
        "zone_id": "F\u00d6LI",
        "stop_url": "",
        "location_type": 0,
        "parent_station": 0,
        "stop_timezone": "Europe\/Helsinki",
        "wheelchair_boarding": 0
    },
    "1054": {
        "stop_code": "1054",
        "stop_name": "It\u00e4pellonkatu",
        "stop_desc": "",
        "stop_lat": 60.45914,
        "stop_lon": 22.24699,
        "zone_id": "F\u00d6LI",
        "stop_url": "",
        "location_type": 0,
        "parent_station": 0,
        "stop_timezone": "Europe\/Helsinki",
        "wheelchair_boarding": 0
    },
    "1055": {
        "stop_code": "1055",
        "stop_name": "Untolankatu",
        "stop_desc": "",
        "stop_lat": 60.46131,
        "stop_lon": 22.24563,
        "zone_id": "F\u00d6LI",
        "stop_url": "",
        "location_type": 0,
        "parent_station": 0,
        "stop_timezone": "Europe\/Helsinki",
        "wheelchair_boarding": 0
    },
    "1056": {
        "stop_code": "1056",
        "stop_name": "Ruohonp\u00e4\u00e4nkatu",
        "stop_desc": "",
        "stop_lat": 60.46414,
        "stop_lon": 22.24172,
        "zone_id": "F\u00d6LI",
        "stop_url": "",
        "location_type": 0,
        "parent_station": 0,
        "stop_timezone": "Europe\/Helsinki",
        "wheelchair_boarding": 0
    },
    "1057": {
        "stop_code": "1057",
        "stop_name": "Lukoilantie",
        "stop_desc": "",
        "stop_lat": 60.46643,
        "stop_lon": 22.23416,
        "zone_id": "F\u00d6LI",
        "stop_url": "",
        "location_type": 0,
        "parent_station": 0,
        "stop_timezone": "Europe\/Helsinki",
        "wheelchair_boarding": 0
    },
    "1058": {
        "stop_code": "1058",
        "stop_name": "Aunelantie",
        "stop_desc": "",
        "stop_lat": 60.45416,
        "stop_lon": 22.19626,
        "zone_id": "F\u00d6LI",
        "stop_url": "",
        "location_type": 0,
        "parent_station": 0,
        "stop_timezone": "Europe\/Helsinki",
        "wheelchair_boarding": 0
    },
    "1059": {
        "stop_code": "1059",
        "stop_name": "Lentoasemantie",
        "stop_desc": "",
        "stop_lat": 60.51018,
        "stop_lon": 22.28964,
        "zone_id": "F\u00d6LI",
        "stop_url": "",
        "location_type": 0,
        "parent_station": 0,
        "stop_timezone": "Europe\/Helsinki",
        "wheelchair_boarding": 0
    },
    "106": {
        "stop_code": "106",
        "stop_name": "Linnankatu",
        "stop_desc": "",
        "stop_lat": 60.44629,
        "stop_lon": 22.25651,
        "zone_id": "F\u00d6LI",
        "stop_url": "",
        "location_type": 0,
        "parent_station": 0,
        "stop_timezone": "Europe\/Helsinki",
        "wheelchair_boarding": 0
    },
    "1060": {
        "stop_code": "1060",
        "stop_name": "Vaistentie",
        "stop_desc": "",
        "stop_lat": 60.5152,
        "stop_lon": 22.2926,
        "zone_id": "F\u00d6LI",
        "stop_url": "",
        "location_type": 0,
        "parent_station": 0,
        "stop_timezone": "Europe\/Helsinki",
        "wheelchair_boarding": 0
    },
    "1061": {
        "stop_code": "1061",
        "stop_name": "Suihkarintie",
        "stop_desc": "",
        "stop_lat": 60.51915,
        "stop_lon": 22.29344,
        "zone_id": "F\u00d6LI",
        "stop_url": "",
        "location_type": 0,
        "parent_station": 0,
        "stop_timezone": "Europe\/Helsinki",
        "wheelchair_boarding": 0
    },
    "1062": {
        "stop_code": "1062",
        "stop_name": "Karhulantie",
        "stop_desc": "",
        "stop_lat": 60.52551,
        "stop_lon": 22.29321,
        "zone_id": "F\u00d6LI",
        "stop_url": "",
        "location_type": 0,
        "parent_station": 0,
        "stop_timezone": "Europe\/Helsinki",
        "wheelchair_boarding": 0
    },
    "1063": {
        "stop_code": "1063",
        "stop_name": "Moision koulu",
        "stop_desc": "",
        "stop_lat": 60.5285,
        "stop_lon": 22.2921,
        "zone_id": "F\u00d6LI",
        "stop_url": "",
        "location_type": 0,
        "parent_station": 0,
        "stop_timezone": "Europe\/Helsinki",
        "wheelchair_boarding": 0
    },
    "1064": {
        "stop_code": "1064",
        "stop_name": "Paimionkatu",
        "stop_desc": "",
        "stop_lat": 60.53123,
        "stop_lon": 22.30114,
        "zone_id": "F\u00d6LI",
        "stop_url": "",
        "location_type": 0,
        "parent_station": 0,
        "stop_timezone": "Europe\/Helsinki",
        "wheelchair_boarding": 0
    },
    "1066": {
        "stop_code": "1066",
        "stop_name": "Moisio",
        "stop_desc": "",
        "stop_lat": 60.53341,
        "stop_lon": 22.3054,
        "zone_id": "F\u00d6LI",
        "stop_url": "",
        "location_type": 0,
        "parent_station": 0,
        "stop_timezone": "Europe\/Helsinki",
        "wheelchair_boarding": 0
    },
    "1068": {
        "stop_code": "1068",
        "stop_name": "Isosuontie",
        "stop_desc": "",
        "stop_lat": 60.54787,
        "stop_lon": 22.30381,
        "zone_id": "F\u00d6LI",
        "stop_url": "",
        "location_type": 0,
        "parent_station": 0,
        "stop_timezone": "Europe\/Helsinki",
        "wheelchair_boarding": 0
    },
    "1069": {
        "stop_code": "1069",
        "stop_name": "Mittumaarintie",
        "stop_desc": "",
        "stop_lat": 60.55217,
        "stop_lon": 22.30965,
        "zone_id": "F\u00d6LI",
        "stop_url": "",
        "location_type": 0,
        "parent_station": 0,
        "stop_timezone": "Europe\/Helsinki",
        "wheelchair_boarding": 0
    },
    "107": {
        "stop_code": "107",
        "stop_name": "Koulukatu",
        "stop_desc": "",
        "stop_lat": 60.44704,
        "stop_lon": 22.25613,
        "zone_id": "F\u00d6LI",
        "stop_url": "",
        "location_type": 0,
        "parent_station": 0,
        "stop_timezone": "Europe\/Helsinki",
        "wheelchair_boarding": 0
    },
    "1070": {
        "stop_code": "1070",
        "stop_name": "Saarenoja",
        "stop_desc": "",
        "stop_lat": 60.55614,
        "stop_lon": 22.31643,
        "zone_id": "F\u00d6LI",
        "stop_url": "",
        "location_type": 0,
        "parent_station": 0,
        "stop_timezone": "Europe\/Helsinki",
        "wheelchair_boarding": 0
    },
    "1072": {
        "stop_code": "1072",
        "stop_name": "Haverintie",
        "stop_desc": "",
        "stop_lat": 60.55964,
        "stop_lon": 22.3233,
        "zone_id": "F\u00d6LI",
        "stop_url": "",
        "location_type": 0,
        "parent_station": 0,
        "stop_timezone": "Europe\/Helsinki",
        "wheelchair_boarding": 0
    },
    "1073": {
        "stop_code": "1073",
        "stop_name": "Saarenoja",
        "stop_desc": "",
        "stop_lat": 60.55587,
        "stop_lon": 22.31574,
        "zone_id": "F\u00d6LI",
        "stop_url": "",
        "location_type": 0,
        "parent_station": 0,
        "stop_timezone": "Europe\/Helsinki",
        "wheelchair_boarding": 0
    },
    "1074": {
        "stop_code": "1074",
        "stop_name": "Mittumaarintie",
        "stop_desc": "",
        "stop_lat": 60.55181,
        "stop_lon": 22.30906,
        "zone_id": "F\u00d6LI",
        "stop_url": "",
        "location_type": 0,
        "parent_station": 0,
        "stop_timezone": "Europe\/Helsinki",
        "wheelchair_boarding": 0
    },
    "1076": {
        "stop_code": "1076",
        "stop_name": "Moisionramppi",
        "stop_desc": "",
        "stop_lat": 60.53303,
        "stop_lon": 22.30688,
        "zone_id": "F\u00d6LI",
        "stop_url": "",
        "location_type": 0,
        "parent_station": 0,
        "stop_timezone": "Europe\/Helsinki",
        "wheelchair_boarding": 0
    },
    "1077": {
        "stop_code": "1077",
        "stop_name": "Moisionramppi",
        "stop_desc": "",
        "stop_lat": 60.53269,
        "stop_lon": 22.31003,
        "zone_id": "F\u00d6LI",
        "stop_url": "",
        "location_type": 0,
        "parent_station": 0,
        "stop_timezone": "Europe\/Helsinki",
        "wheelchair_boarding": 0
    },
    "1078": {
        "stop_code": "1078",
        "stop_name": "Moisio",
        "stop_desc": "",
        "stop_lat": 60.53345,
        "stop_lon": 22.30525,
        "zone_id": "F\u00d6LI",
        "stop_url": "",
        "location_type": 0,
        "parent_station": 0,
        "stop_timezone": "Europe\/Helsinki",
        "wheelchair_boarding": 0
    },
    "1079": {
        "stop_code": "1079",
        "stop_name": "Paimionkatu",
        "stop_desc": "",
        "stop_lat": 60.53169,
        "stop_lon": 22.30191,
        "zone_id": "F\u00d6LI",
        "stop_url": "",
        "location_type": 0,
        "parent_station": 0,
        "stop_timezone": "Europe\/Helsinki",
        "wheelchair_boarding": 0
    },
    "108": {
        "stop_code": "108",
        "stop_name": "K\u00e4sity\u00f6l\u00e4iskatu",
        "stop_desc": "",
        "stop_lat": 60.44839,
        "stop_lon": 22.26023,
        "zone_id": "F\u00d6LI",
        "stop_url": "",
        "location_type": 0,
        "parent_station": 0,
        "stop_timezone": "Europe\/Helsinki",
        "wheelchair_boarding": 0
    },
    "1080": {
        "stop_code": "1080",
        "stop_name": "Moision koulu",
        "stop_desc": "",
        "stop_lat": 60.52877,
        "stop_lon": 22.29296,
        "zone_id": "F\u00d6LI",
        "stop_url": "",
        "location_type": 0,
        "parent_station": 0,
        "stop_timezone": "Europe\/Helsinki",
        "wheelchair_boarding": 0
    },
    "1082": {
        "stop_code": "1082",
        "stop_name": "Karhulantie",
        "stop_desc": "",
        "stop_lat": 60.52461,
        "stop_lon": 22.29349,
        "zone_id": "F\u00d6LI",
        "stop_url": "",
        "location_type": 0,
        "parent_station": 0,
        "stop_timezone": "Europe\/Helsinki",
        "wheelchair_boarding": 0
    },
    "1083": {
        "stop_code": "1083",
        "stop_name": "Suihkarintie",
        "stop_desc": "",
        "stop_lat": 60.51832,
        "stop_lon": 22.29313,
        "zone_id": "F\u00d6LI",
        "stop_url": "",
        "location_type": 0,
        "parent_station": 0,
        "stop_timezone": "Europe\/Helsinki",
        "wheelchair_boarding": 0
    },
    "1084": {
        "stop_code": "1084",
        "stop_name": "Vaistentie",
        "stop_desc": "",
        "stop_lat": 60.51454,
        "stop_lon": 22.29225,
        "zone_id": "F\u00d6LI",
        "stop_url": "",
        "location_type": 0,
        "parent_station": 0,
        "stop_timezone": "Europe\/Helsinki",
        "wheelchair_boarding": 0
    },
    "1087": {
        "stop_code": "1087",
        "stop_name": "Vaistentie",
        "stop_desc": "",
        "stop_lat": 60.50399,
        "stop_lon": 22.33428,
        "zone_id": "F\u00d6LI",
        "stop_url": "",
        "location_type": 0,
        "parent_station": 0,
        "stop_timezone": "Europe\/Helsinki",
        "wheelchair_boarding": 0
    },
    "1088": {
        "stop_code": "1088",
        "stop_name": "Huhkonmaantie",
        "stop_desc": "",
        "stop_lat": 60.50767,
        "stop_lon": 22.33721,
        "zone_id": "F\u00d6LI",
        "stop_url": "",
        "location_type": 0,
        "parent_station": 0,
        "stop_timezone": "Europe\/Helsinki",
        "wheelchair_boarding": 0
    },
    "1089": {
        "stop_code": "1089",
        "stop_name": "Huiskulantie",
        "stop_desc": "",
        "stop_lat": 60.51054,
        "stop_lon": 22.34252,
        "zone_id": "F\u00d6LI",
        "stop_url": "",
        "location_type": 0,
        "parent_station": 0,
        "stop_timezone": "Europe\/Helsinki",
        "wheelchair_boarding": 0
    },
    "109": {
        "stop_code": "109",
        "stop_name": "Kristiinankatu",
        "stop_desc": "",
        "stop_lat": 60.44926,
        "stop_lon": 22.26274,
        "zone_id": "F\u00d6LI",
        "stop_url": "",
        "location_type": 0,
        "parent_station": 0,
        "stop_timezone": "Europe\/Helsinki",
        "wheelchair_boarding": 0
    },
    "1090": {
        "stop_code": "1090",
        "stop_name": "Paimala",
        "stop_desc": "",
        "stop_lat": 60.51203,
        "stop_lon": 22.34552,
        "zone_id": "F\u00d6LI",
        "stop_url": "",
        "location_type": 0,
        "parent_station": 0,
        "stop_timezone": "Europe\/Helsinki",
        "wheelchair_boarding": 0
    },
    "1091": {
        "stop_code": "1091",
        "stop_name": "Keinum\u00e4entie",
        "stop_desc": "",
        "stop_lat": 60.51584,
        "stop_lon": 22.34594,
        "zone_id": "F\u00d6LI",
        "stop_url": "",
        "location_type": 0,
        "parent_station": 0,
        "stop_timezone": "Europe\/Helsinki",
        "wheelchair_boarding": 0
    },
    "1092": {
        "stop_code": "1092",
        "stop_name": "Urheilutalo",
        "stop_desc": "",
        "stop_lat": 60.51745,
        "stop_lon": 22.34899,
        "zone_id": "F\u00d6LI",
        "stop_url": "",
        "location_type": 0,
        "parent_station": 0,
        "stop_timezone": "Europe\/Helsinki",
        "wheelchair_boarding": 0
    },
    "1093": {
        "stop_code": "1093",
        "stop_name": "Myllyoja",
        "stop_desc": "",
        "stop_lat": 60.52298,
        "stop_lon": 22.34683,
        "zone_id": "F\u00d6LI",
        "stop_url": "",
        "location_type": 0,
        "parent_station": 0,
        "stop_timezone": "Europe\/Helsinki",
        "wheelchair_boarding": 0
    },
    "1094": {
        "stop_code": "1094",
        "stop_name": "Puolniituntie",
        "stop_desc": "",
        "stop_lat": 60.52586,
        "stop_lon": 22.34847,
        "zone_id": "F\u00d6LI",
        "stop_url": "",
        "location_type": 0,
        "parent_station": 0,
        "stop_timezone": "Europe\/Helsinki",
        "wheelchair_boarding": 0
    },
    "1095": {
        "stop_code": "1095",
        "stop_name": "Suvannontie",
        "stop_desc": "",
        "stop_lat": 60.53275,
        "stop_lon": 22.34489,
        "zone_id": "F\u00d6LI",
        "stop_url": "",
        "location_type": 0,
        "parent_station": 0,
        "stop_timezone": "Europe\/Helsinki",
        "wheelchair_boarding": 0
    },
    "1096": {
        "stop_code": "1096",
        "stop_name": "J\u00e4k\u00e4rl\u00e4n puistokatu",
        "stop_desc": "",
        "stop_lat": 60.53722,
        "stop_lon": 22.35379,
        "zone_id": "F\u00d6LI",
        "stop_url": "",
        "location_type": 0,
        "parent_station": 0,
        "stop_timezone": "Europe\/Helsinki",
        "wheelchair_boarding": 0
    },
    "1097": {
        "stop_code": "1097",
        "stop_name": "Kylm\u00e4alhonkatu",
        "stop_desc": "",
        "stop_lat": 60.5383,
        "stop_lon": 22.36152,
        "zone_id": "F\u00d6LI",
        "stop_url": "",
        "location_type": 0,
        "parent_station": 0,
        "stop_timezone": "Europe\/Helsinki",
        "wheelchair_boarding": 0
    },
    "1098": {
        "stop_code": "1098",
        "stop_name": "J\u00e4k\u00e4rl\u00e4n puistokatu",
        "stop_desc": "",
        "stop_lat": 60.53703,
        "stop_lon": 22.35199,
        "zone_id": "F\u00d6LI",
        "stop_url": "",
        "location_type": 0,
        "parent_station": 0,
        "stop_timezone": "Europe\/Helsinki",
        "wheelchair_boarding": 0
    },
    "1099": {
        "stop_code": "1099",
        "stop_name": "Merovinkikatu",
        "stop_desc": "",
        "stop_lat": 60.53684,
        "stop_lon": 22.34914,
        "zone_id": "F\u00d6LI",
        "stop_url": "",
        "location_type": 0,
        "parent_station": 0,
        "stop_timezone": "Europe\/Helsinki",
        "wheelchair_boarding": 0
    },
    "11": {
        "stop_code": "11",
        "stop_name": "Borenpuisto",
        "stop_desc": "",
        "stop_lat": 60.44559,
        "stop_lon": 22.25647,
        "zone_id": "F\u00d6LI",
        "stop_url": "",
        "location_type": 0,
        "parent_station": 0,
        "stop_timezone": "Europe\/Helsinki",
        "wheelchair_boarding": 0
    },
    "1100": {
        "stop_code": "1100",
        "stop_name": "J\u00e4k\u00e4rl\u00e4n liittym\u00e4",
        "stop_desc": "",
        "stop_lat": 60.54291,
        "stop_lon": 22.34255,
        "zone_id": "F\u00d6LI",
        "stop_url": "",
        "location_type": 0,
        "parent_station": 0,
        "stop_timezone": "Europe\/Helsinki",
        "wheelchair_boarding": 0
    },
    "1101": {
        "stop_code": "1101",
        "stop_name": "Ruskonojantie",
        "stop_desc": "",
        "stop_lat": 60.54653,
        "stop_lon": 22.33982,
        "zone_id": "F\u00d6LI",
        "stop_url": "",
        "location_type": 0,
        "parent_station": 0,
        "stop_timezone": "Europe\/Helsinki",
        "wheelchair_boarding": 0
    },
    "1102": {
        "stop_code": "1102",
        "stop_name": "Auvaism\u00e4ki",
        "stop_desc": "",
        "stop_lat": 60.57478,
        "stop_lon": 22.34989,
        "zone_id": "F\u00d6LI",
        "stop_url": "",
        "location_type": 0,
        "parent_station": 0,
        "stop_timezone": "Europe\/Helsinki",
        "wheelchair_boarding": 0
    },
    "1103": {
        "stop_code": "1103",
        "stop_name": "Ruskonojantie",
        "stop_desc": "",
        "stop_lat": 60.54523,
        "stop_lon": 22.3397,
        "zone_id": "F\u00d6LI",
        "stop_url": "",
        "location_type": 0,
        "parent_station": 0,
        "stop_timezone": "Europe\/Helsinki",
        "wheelchair_boarding": 0
    },
    "1104": {
        "stop_code": "1104",
        "stop_name": "J\u00e4k\u00e4rl\u00e4n liittym\u00e4",
        "stop_desc": "",
        "stop_lat": 60.54302,
        "stop_lon": 22.34392,
        "zone_id": "F\u00d6LI",
        "stop_url": "",
        "location_type": 0,
        "parent_station": 0,
        "stop_timezone": "Europe\/Helsinki",
        "wheelchair_boarding": 0
    },
    "1105": {
        "stop_code": "1105",
        "stop_name": "Merovinkikatu",
        "stop_desc": "",
        "stop_lat": 60.53681,
        "stop_lon": 22.34974,
        "zone_id": "F\u00d6LI",
        "stop_url": "",
        "location_type": 0,
        "parent_station": 0,
        "stop_timezone": "Europe\/Helsinki",
        "wheelchair_boarding": 0
    },
    "1106": {
        "stop_code": "1106",
        "stop_name": "Suvannontie",
        "stop_desc": "",
        "stop_lat": 60.53207,
        "stop_lon": 22.34492,
        "zone_id": "F\u00d6LI",
        "stop_url": "",
        "location_type": 0,
        "parent_station": 0,
        "stop_timezone": "Europe\/Helsinki",
        "wheelchair_boarding": 0
    },
    "1107": {
        "stop_code": "1107",
        "stop_name": "Puolniituntie",
        "stop_desc": "",
        "stop_lat": 60.52537,
        "stop_lon": 22.34816,
        "zone_id": "F\u00d6LI",
        "stop_url": "",
        "location_type": 0,
        "parent_station": 0,
        "stop_timezone": "Europe\/Helsinki",
        "wheelchair_boarding": 0
    },
    "1108": {
        "stop_code": "1108",
        "stop_name": "Myllyoja",
        "stop_desc": "",
        "stop_lat": 60.52161,
        "stop_lon": 22.34715,
        "zone_id": "F\u00d6LI",
        "stop_url": "",
        "location_type": 0,
        "parent_station": 0,
        "stop_timezone": "Europe\/Helsinki",
        "wheelchair_boarding": 0
    },
    "1109": {
        "stop_code": "1109",
        "stop_name": "Urheilutalo",
        "stop_desc": "",
        "stop_lat": 60.5168,
        "stop_lon": 22.34808,
        "zone_id": "F\u00d6LI",
        "stop_url": "",
        "location_type": 0,
        "parent_station": 0,
        "stop_timezone": "Europe\/Helsinki",
        "wheelchair_boarding": 0
    },
    "111": {
        "stop_code": "111",
        "stop_name": "Kyyrl\u00e4ntie",
        "stop_desc": "",
        "stop_lat": 60.40908,
        "stop_lon": 22.21975,
        "zone_id": "F\u00d6LI",
        "stop_url": "",
        "location_type": 0,
        "parent_station": 0,
        "stop_timezone": "Europe\/Helsinki",
        "wheelchair_boarding": 0
    },
    "1110": {
        "stop_code": "1110",
        "stop_name": "Keinum\u00e4entie",
        "stop_desc": "",
        "stop_lat": 60.51563,
        "stop_lon": 22.34491,
        "zone_id": "F\u00d6LI",
        "stop_url": "",
        "location_type": 0,
        "parent_station": 0,
        "stop_timezone": "Europe\/Helsinki",
        "wheelchair_boarding": 0
    },
    "1111": {
        "stop_code": "1111",
        "stop_name": "Paimala",
        "stop_desc": "",
        "stop_lat": 60.5115,
        "stop_lon": 22.34516,
        "zone_id": "F\u00d6LI",
        "stop_url": "",
        "location_type": 0,
        "parent_station": 0,
        "stop_timezone": "Europe\/Helsinki",
        "wheelchair_boarding": 0
    },
    "1112": {
        "stop_code": "1112",
        "stop_name": "Huiskulantie",
        "stop_desc": "",
        "stop_lat": 60.50996,
        "stop_lon": 22.3402,
        "zone_id": "F\u00d6LI",
        "stop_url": "",
        "location_type": 0,
        "parent_station": 0,
        "stop_timezone": "Europe\/Helsinki",
        "wheelchair_boarding": 0
    },
    "1113": {
        "stop_code": "1113",
        "stop_name": "Huhkonmaantie",
        "stop_desc": "",
        "stop_lat": 60.50806,
        "stop_lon": 22.33732,
        "zone_id": "F\u00d6LI",
        "stop_url": "",
        "location_type": 0,
        "parent_station": 0,
        "stop_timezone": "Europe\/Helsinki",
        "wheelchair_boarding": 0
    },
    "1116": {
        "stop_code": "1116",
        "stop_name": "Suokallionkatu",
        "stop_desc": "",
        "stop_lat": 60.53849,
        "stop_lon": 22.29386,
        "zone_id": "F\u00d6LI",
        "stop_url": "",
        "location_type": 0,
        "parent_station": 0,
        "stop_timezone": "Europe\/Helsinki",
        "wheelchair_boarding": 0
    },
    "1117": {
        "stop_code": "1117",
        "stop_name": "Haverintie",
        "stop_desc": "",
        "stop_lat": 60.55994,
        "stop_lon": 22.3241,
        "zone_id": "F\u00d6LI",
        "stop_url": "",
        "location_type": 0,
        "parent_station": 0,
        "stop_timezone": "Europe\/Helsinki",
        "wheelchair_boarding": 0
    },
    "1118": {
        "stop_code": "1118",
        "stop_name": "M\u00e4ntysaarentie",
        "stop_desc": "",
        "stop_lat": 60.56596,
        "stop_lon": 22.33622,
        "zone_id": "F\u00d6LI",
        "stop_url": "",
        "location_type": 0,
        "parent_station": 0,
        "stop_timezone": "Europe\/Helsinki",
        "wheelchair_boarding": 0
    },
    "1119": {
        "stop_code": "1119",
        "stop_name": "Auvaistentie",
        "stop_desc": "",
        "stop_lat": 60.56814,
        "stop_lon": 22.34058,
        "zone_id": "F\u00d6LI",
        "stop_url": "",
        "location_type": 0,
        "parent_station": 0,
        "stop_timezone": "Europe\/Helsinki",
        "wheelchair_boarding": 0
    },
    "112": {
        "stop_code": "112",
        "stop_name": "Brahenkatu",
        "stop_desc": "",
        "stop_lat": 60.45268,
        "stop_lon": 22.27287,
        "zone_id": "F\u00d6LI",
        "stop_url": "",
        "location_type": 0,
        "parent_station": 0,
        "stop_timezone": "Europe\/Helsinki",
        "wheelchair_boarding": 0
    },
    "1120": {
        "stop_code": "1120",
        "stop_name": "Krouvintie",
        "stop_desc": "",
        "stop_lat": 60.57106,
        "stop_lon": 22.34593,
        "zone_id": "F\u00d6LI",
        "stop_url": "",
        "location_type": 0,
        "parent_station": 0,
        "stop_timezone": "Europe\/Helsinki",
        "wheelchair_boarding": 0
    },
    "1121": {
        "stop_code": "1121",
        "stop_name": "Krouvinkuja",
        "stop_desc": "",
        "stop_lat": 60.57367,
        "stop_lon": 22.34826,
        "zone_id": "F\u00d6LI",
        "stop_url": "",
        "location_type": 0,
        "parent_station": 0,
        "stop_timezone": "Europe\/Helsinki",
        "wheelchair_boarding": 0
    },
    "1122": {
        "stop_code": "1122",
        "stop_name": "Auvaism\u00e4entie",
        "stop_desc": "",
        "stop_lat": 60.57507,
        "stop_lon": 22.34902,
        "zone_id": "F\u00d6LI",
        "stop_url": "",
        "location_type": 0,
        "parent_station": 0,
        "stop_timezone": "Europe\/Helsinki",
        "wheelchair_boarding": 0
    },
    "1123": {
        "stop_code": "1123",
        "stop_name": "Tiravantie",
        "stop_desc": "",
        "stop_lat": 60.58141,
        "stop_lon": 22.35246,
        "zone_id": "F\u00d6LI",
        "stop_url": "",
        "location_type": 0,
        "parent_station": 0,
        "stop_timezone": "Europe\/Helsinki",
        "wheelchair_boarding": 0
    },
    "1124": {
        "stop_code": "1124",
        "stop_name": "Kreivil\u00e4n koulu",
        "stop_desc": "",
        "stop_lat": 60.58356,
        "stop_lon": 22.35526,
        "zone_id": "F\u00d6LI",
        "stop_url": "",
        "location_type": 0,
        "parent_station": 0,
        "stop_timezone": "Europe\/Helsinki",
        "wheelchair_boarding": 0
    },
    "1125": {
        "stop_code": "1125",
        "stop_name": "Sakontie",
        "stop_desc": "",
        "stop_lat": 60.5853,
        "stop_lon": 22.36173,
        "zone_id": "F\u00d6LI",
        "stop_url": "",
        "location_type": 0,
        "parent_station": 0,
        "stop_timezone": "Europe\/Helsinki",
        "wheelchair_boarding": 0
    },
    "1126": {
        "stop_code": "1126",
        "stop_name": "M\u00e4nnist\u00f6ntie",
        "stop_desc": "",
        "stop_lat": 60.58678,
        "stop_lon": 22.36907,
        "zone_id": "F\u00d6LI",
        "stop_url": "",
        "location_type": 0,
        "parent_station": 0,
        "stop_timezone": "Europe\/Helsinki",
        "wheelchair_boarding": 0
    },
    "1127": {
        "stop_code": "1127",
        "stop_name": "Paattisten kirkko",
        "stop_desc": "",
        "stop_lat": 60.59149,
        "stop_lon": 22.38064,
        "zone_id": "F\u00d6LI",
        "stop_url": "",
        "location_type": 0,
        "parent_station": 0,
        "stop_timezone": "Europe\/Helsinki",
        "wheelchair_boarding": 0
    },
    "1128": {
        "stop_code": "1128",
        "stop_name": "Aluetalo",
        "stop_desc": "",
        "stop_lat": 60.59281,
        "stop_lon": 22.38372,
        "zone_id": "F\u00d6LI",
        "stop_url": "",
        "location_type": 0,
        "parent_station": 0,
        "stop_timezone": "Europe\/Helsinki",
        "wheelchair_boarding": 0
    },
    "1129": {
        "stop_code": "1129",
        "stop_name": "Iskoistenkatu",
        "stop_desc": "",
        "stop_lat": 60.59455,
        "stop_lon": 22.38702,
        "zone_id": "F\u00d6LI",
        "stop_url": "",
        "location_type": 0,
        "parent_station": 0,
        "stop_timezone": "Europe\/Helsinki",
        "wheelchair_boarding": 0
    },
    "113": {
        "stop_code": "113",
        "stop_name": "Toijainen",
        "stop_desc": "",
        "stop_lat": 60.4113,
        "stop_lon": 22.20963,
        "zone_id": "F\u00d6LI",
        "stop_url": "",
        "location_type": 0,
        "parent_station": 0,
        "stop_timezone": "Europe\/Helsinki",
        "wheelchair_boarding": 0
    },
    "1130": {
        "stop_code": "1130",
        "stop_name": "Alakartanontie",
        "stop_desc": "",
        "stop_lat": 60.59695,
        "stop_lon": 22.39156,
        "zone_id": "F\u00d6LI",
        "stop_url": "",
        "location_type": 0,
        "parent_station": 0,
        "stop_timezone": "Europe\/Helsinki",
        "wheelchair_boarding": 0
    },
    "1131": {
        "stop_code": "1131",
        "stop_name": "Levauksentie",
        "stop_desc": "",
        "stop_lat": 60.60183,
        "stop_lon": 22.39991,
        "zone_id": "F\u00d6LI",
        "stop_url": "",
        "location_type": 0,
        "parent_station": 0,
        "stop_timezone": "Europe\/Helsinki",
        "wheelchair_boarding": 0
    },
    "1132": {
        "stop_code": "1132",
        "stop_name": "Viikkalantie",
        "stop_desc": "",
        "stop_lat": 60.60439,
        "stop_lon": 22.40139,
        "zone_id": "F\u00d6LI",
        "stop_url": "",
        "location_type": 0,
        "parent_station": 0,
        "stop_timezone": "Europe\/Helsinki",
        "wheelchair_boarding": 0
    },
    "1133": {
        "stop_code": "1133",
        "stop_name": "Tiipil\u00e4ntie",
        "stop_desc": "",
        "stop_lat": 60.60818,
        "stop_lon": 22.40897,
        "zone_id": "F\u00d6LI",
        "stop_url": "",
        "location_type": 0,
        "parent_station": 0,
        "stop_timezone": "Europe\/Helsinki",
        "wheelchair_boarding": 0
    },
    "1134": {
        "stop_code": "1134",
        "stop_name": "Joenper\u00e4ntie",
        "stop_desc": "",
        "stop_lat": 60.60979,
        "stop_lon": 22.41251,
        "zone_id": "F\u00d6LI",
        "stop_url": "",
        "location_type": 0,
        "parent_station": 0,
        "stop_timezone": "Europe\/Helsinki",
        "wheelchair_boarding": 0
    },
    "1135": {
        "stop_code": "1135",
        "stop_name": "Yli-Rokki",
        "stop_desc": "",
        "stop_lat": 60.61117,
        "stop_lon": 22.41484,
        "zone_id": "F\u00d6LI",
        "stop_url": "",
        "location_type": 0,
        "parent_station": 0,
        "stop_timezone": "Europe\/Helsinki",
        "wheelchair_boarding": 0
    },
    "1136": {
        "stop_code": "1136",
        "stop_name": "Kaivastentie",
        "stop_desc": "",
        "stop_lat": 60.61438,
        "stop_lon": 22.41916,
        "zone_id": "F\u00d6LI",
        "stop_url": "",
        "location_type": 0,
        "parent_station": 0,
        "stop_timezone": "Europe\/Helsinki",
        "wheelchair_boarding": 0
    },
    "1137": {
        "stop_code": "1137",
        "stop_name": "Tuomisentie",
        "stop_desc": "",
        "stop_lat": 60.61802,
        "stop_lon": 22.42305,
        "zone_id": "F\u00d6LI",
        "stop_url": "",
        "location_type": 0,
        "parent_station": 0,
        "stop_timezone": "Europe\/Helsinki",
        "wheelchair_boarding": 0
    },
    "1138": {
        "stop_code": "1138",
        "stop_name": "Valuntie",
        "stop_desc": "",
        "stop_lat": 60.6256,
        "stop_lon": 22.42556,
        "zone_id": "F\u00d6LI",
        "stop_url": "",
        "location_type": 0,
        "parent_station": 0,
        "stop_timezone": "Europe\/Helsinki",
        "wheelchair_boarding": 0
    },
    "1139": {
        "stop_code": "1139",
        "stop_name": "Haavikko",
        "stop_desc": "",
        "stop_lat": 60.63086,
        "stop_lon": 22.4245,
        "zone_id": "F\u00d6LI",
        "stop_url": "",
        "location_type": 0,
        "parent_station": 0,
        "stop_timezone": "Europe\/Helsinki",
        "wheelchair_boarding": 0
    },
    "114": {
        "stop_code": "114",
        "stop_name": "Akatemiantalo",
        "stop_desc": "",
        "stop_lat": 60.45132,
        "stop_lon": 22.2809,
        "zone_id": "F\u00d6LI",
        "stop_url": "",
        "location_type": 0,
        "parent_station": 0,
        "stop_timezone": "Europe\/Helsinki",
        "wheelchair_boarding": 0
    },
    "1140": {
        "stop_code": "1140",
        "stop_name": "Ikkalantie",
        "stop_desc": "",
        "stop_lat": 60.63405,
        "stop_lon": 22.42243,
        "zone_id": "F\u00d6LI",
        "stop_url": "",
        "location_type": 0,
        "parent_station": 0,
        "stop_timezone": "Europe\/Helsinki",
        "wheelchair_boarding": 0
    },
    "1141": {
        "stop_code": "1141",
        "stop_name": "Jokelantie",
        "stop_desc": "",
        "stop_lat": 60.63924,
        "stop_lon": 22.41963,
        "zone_id": "F\u00d6LI",
        "stop_url": "",
        "location_type": 0,
        "parent_station": 0,
        "stop_timezone": "Europe\/Helsinki",
        "wheelchair_boarding": 0
    },
    "1142": {
        "stop_code": "1142",
        "stop_name": "Purolantie",
        "stop_desc": "",
        "stop_lat": 60.64272,
        "stop_lon": 22.42098,
        "zone_id": "F\u00d6LI",
        "stop_url": "",
        "location_type": 0,
        "parent_station": 0,
        "stop_timezone": "Europe\/Helsinki",
        "wheelchair_boarding": 0
    },
    "1143": {
        "stop_code": "1143",
        "stop_name": "Kaarlejoentie",
        "stop_desc": "",
        "stop_lat": 60.64872,
        "stop_lon": 22.42564,
        "zone_id": "F\u00d6LI",
        "stop_url": "",
        "location_type": 0,
        "parent_station": 0,
        "stop_timezone": "Europe\/Helsinki",
        "wheelchair_boarding": 0
    },
    "1144": {
        "stop_code": "1144",
        "stop_name": "M\u00e4kel\u00e4ntie",
        "stop_desc": "",
        "stop_lat": 60.65467,
        "stop_lon": 22.43095,
        "zone_id": "F\u00d6LI",
        "stop_url": "",
        "location_type": 0,
        "parent_station": 0,
        "stop_timezone": "Europe\/Helsinki",
        "wheelchair_boarding": 0
    },
    "1145": {
        "stop_code": "1145",
        "stop_name": "Perttelm\u00e4entie",
        "stop_desc": "",
        "stop_lat": 60.65883,
        "stop_lon": 22.43289,
        "zone_id": "F\u00d6LI",
        "stop_url": "",
        "location_type": 0,
        "parent_station": 0,
        "stop_timezone": "Europe\/Helsinki",
        "wheelchair_boarding": 0
    },
    "1146": {
        "stop_code": "1146",
        "stop_name": "V\u00e4limaantie",
        "stop_desc": "",
        "stop_lat": 60.67398,
        "stop_lon": 22.4375,
        "zone_id": "F\u00d6LI",
        "stop_url": "",
        "location_type": 0,
        "parent_station": 0,
        "stop_timezone": "Europe\/Helsinki",
        "wheelchair_boarding": 0
    },
    "1147": {
        "stop_code": "1147",
        "stop_name": "Jaakolantie",
        "stop_desc": "",
        "stop_lat": 60.68058,
        "stop_lon": 22.4405,
        "zone_id": "F\u00d6LI",
        "stop_url": "",
        "location_type": 0,
        "parent_station": 0,
        "stop_timezone": "Europe\/Helsinki",
        "wheelchair_boarding": 0
    },
    "1148": {
        "stop_code": "1148",
        "stop_name": "Tortinm\u00e4entie",
        "stop_desc": "",
        "stop_lat": 60.68746,
        "stop_lon": 22.44163,
        "zone_id": "F\u00d6LI",
        "stop_url": "",
        "location_type": 0,
        "parent_station": 0,
        "stop_timezone": "Europe\/Helsinki",
        "wheelchair_boarding": 0
    },
    "1149": {
        "stop_code": "1149",
        "stop_name": "Tortinm\u00e4ki",
        "stop_desc": "",
        "stop_lat": 60.6899,
        "stop_lon": 22.44195,
        "zone_id": "F\u00d6LI",
        "stop_url": "",
        "location_type": 0,
        "parent_station": 0,
        "stop_timezone": "Europe\/Helsinki",
        "wheelchair_boarding": 0
    },
    "115": {
        "stop_code": "115",
        "stop_name": "Yliopisto (TYKS U-sairaala)",
        "stop_desc": "",
        "stop_lat": 60.4529,
        "stop_lon": 22.2858,
        "zone_id": "F\u00d6LI",
        "stop_url": "",
        "location_type": 0,
        "parent_station": 0,
        "stop_timezone": "Europe\/Helsinki",
        "wheelchair_boarding": 0
    },
    "1150": {
        "stop_code": "1150",
        "stop_name": "Tortinm\u00e4entie",
        "stop_desc": "",
        "stop_lat": 60.68608,
        "stop_lon": 22.44148,
        "zone_id": "F\u00d6LI",
        "stop_url": "",
        "location_type": 0,
        "parent_station": 0,
        "stop_timezone": "Europe\/Helsinki",
        "wheelchair_boarding": 0
    },
    "1151": {
        "stop_code": "1151",
        "stop_name": "Jaakolantie",
        "stop_desc": "",
        "stop_lat": 60.6792,
        "stop_lon": 22.43973,
        "zone_id": "F\u00d6LI",
        "stop_url": "",
        "location_type": 0,
        "parent_station": 0,
        "stop_timezone": "Europe\/Helsinki",
        "wheelchair_boarding": 0
    },
    "1152": {
        "stop_code": "1152",
        "stop_name": "V\u00e4limaantie",
        "stop_desc": "",
        "stop_lat": 60.6732,
        "stop_lon": 22.43698,
        "zone_id": "F\u00d6LI",
        "stop_url": "",
        "location_type": 0,
        "parent_station": 0,
        "stop_timezone": "Europe\/Helsinki",
        "wheelchair_boarding": 0
    },
    "1153": {
        "stop_code": "1153",
        "stop_name": "Perttelm\u00e4entie",
        "stop_desc": "",
        "stop_lat": 60.65836,
        "stop_lon": 22.43255,
        "zone_id": "F\u00d6LI",
        "stop_url": "",
        "location_type": 0,
        "parent_station": 0,
        "stop_timezone": "Europe\/Helsinki",
        "wheelchair_boarding": 0
    },
    "1154": {
        "stop_code": "1154",
        "stop_name": "M\u00e4kel\u00e4ntie",
        "stop_desc": "",
        "stop_lat": 60.65413,
        "stop_lon": 22.43051,
        "zone_id": "F\u00d6LI",
        "stop_url": "",
        "location_type": 0,
        "parent_station": 0,
        "stop_timezone": "Europe\/Helsinki",
        "wheelchair_boarding": 0
    },
    "1155": {
        "stop_code": "1155",
        "stop_name": "Kaarlejoentie",
        "stop_desc": "",
        "stop_lat": 60.64795,
        "stop_lon": 22.42454,
        "zone_id": "F\u00d6LI",
        "stop_url": "",
        "location_type": 0,
        "parent_station": 0,
        "stop_timezone": "Europe\/Helsinki",
        "wheelchair_boarding": 0
    },
    "1156": {
        "stop_code": "1156",
        "stop_name": "Purolantie",
        "stop_desc": "",
        "stop_lat": 60.64213,
        "stop_lon": 22.42044,
        "zone_id": "F\u00d6LI",
        "stop_url": "",
        "location_type": 0,
        "parent_station": 0,
        "stop_timezone": "Europe\/Helsinki",
        "wheelchair_boarding": 0
    },
    "1157": {
        "stop_code": "1157",
        "stop_name": "Jokelantie",
        "stop_desc": "",
        "stop_lat": 60.63817,
        "stop_lon": 22.41936,
        "zone_id": "F\u00d6LI",
        "stop_url": "",
        "location_type": 0,
        "parent_station": 0,
        "stop_timezone": "Europe\/Helsinki",
        "wheelchair_boarding": 0
    },
    "1158": {
        "stop_code": "1158",
        "stop_name": "Ikkalantie",
        "stop_desc": "",
        "stop_lat": 60.63305,
        "stop_lon": 22.42296,
        "zone_id": "F\u00d6LI",
        "stop_url": "",
        "location_type": 0,
        "parent_station": 0,
        "stop_timezone": "Europe\/Helsinki",
        "wheelchair_boarding": 0
    },
    "1159": {
        "stop_code": "1159",
        "stop_name": "Haavikko",
        "stop_desc": "",
        "stop_lat": 60.63032,
        "stop_lon": 22.42445,
        "zone_id": "F\u00d6LI",
        "stop_url": "",
        "location_type": 0,
        "parent_station": 0,
        "stop_timezone": "Europe\/Helsinki",
        "wheelchair_boarding": 0
    },
    "116": {
        "stop_code": "116",
        "stop_name": "TYKS T-sairaala",
        "stop_desc": "",
        "stop_lat": 60.45492,
        "stop_lon": 22.29621,
        "zone_id": "F\u00d6LI",
        "stop_url": "",
        "location_type": 0,
        "parent_station": 0,
        "stop_timezone": "Europe\/Helsinki",
        "wheelchair_boarding": 0
    },
    "1160": {
        "stop_code": "1160",
        "stop_name": "Valuntie",
        "stop_desc": "",
        "stop_lat": 60.62508,
        "stop_lon": 22.42525,
        "zone_id": "F\u00d6LI",
        "stop_url": "",
        "location_type": 0,
        "parent_station": 0,
        "stop_timezone": "Europe\/Helsinki",
        "wheelchair_boarding": 0
    },
    "1161": {
        "stop_code": "1161",
        "stop_name": "Tuomisentie",
        "stop_desc": "",
        "stop_lat": 60.61722,
        "stop_lon": 22.42215,
        "zone_id": "F\u00d6LI",
        "stop_url": "",
        "location_type": 0,
        "parent_station": 0,
        "stop_timezone": "Europe\/Helsinki",
        "wheelchair_boarding": 0
    },
    "1162": {
        "stop_code": "1162",
        "stop_name": "Kaivastentie",
        "stop_desc": "",
        "stop_lat": 60.61381,
        "stop_lon": 22.4183,
        "zone_id": "F\u00d6LI",
        "stop_url": "",
        "location_type": 0,
        "parent_station": 0,
        "stop_timezone": "Europe\/Helsinki",
        "wheelchair_boarding": 0
    },
    "1163": {
        "stop_code": "1163",
        "stop_name": "Yli-Rokki",
        "stop_desc": "",
        "stop_lat": 60.61095,
        "stop_lon": 22.41427,
        "zone_id": "F\u00d6LI",
        "stop_url": "",
        "location_type": 0,
        "parent_station": 0,
        "stop_timezone": "Europe\/Helsinki",
        "wheelchair_boarding": 0
    },
    "1164": {
        "stop_code": "1164",
        "stop_name": "Joenper\u00e4ntie",
        "stop_desc": "",
        "stop_lat": 60.60946,
        "stop_lon": 22.41172,
        "zone_id": "F\u00d6LI",
        "stop_url": "",
        "location_type": 0,
        "parent_station": 0,
        "stop_timezone": "Europe\/Helsinki",
        "wheelchair_boarding": 0
    },
    "1165": {
        "stop_code": "1165",
        "stop_name": "Tiipil\u00e4ntie",
        "stop_desc": "",
        "stop_lat": 60.60787,
        "stop_lon": 22.4079,
        "zone_id": "F\u00d6LI",
        "stop_url": "",
        "location_type": 0,
        "parent_station": 0,
        "stop_timezone": "Europe\/Helsinki",
        "wheelchair_boarding": 0
    },
    "1166": {
        "stop_code": "1166",
        "stop_name": "Viikkalantie",
        "stop_desc": "",
        "stop_lat": 60.60377,
        "stop_lon": 22.40069,
        "zone_id": "F\u00d6LI",
        "stop_url": "",
        "location_type": 0,
        "parent_station": 0,
        "stop_timezone": "Europe\/Helsinki",
        "wheelchair_boarding": 0
    },
    "1167": {
        "stop_code": "1167",
        "stop_name": "Levauksentie",
        "stop_desc": "",
        "stop_lat": 60.60137,
        "stop_lon": 22.39948,
        "zone_id": "F\u00d6LI",
        "stop_url": "",
        "location_type": 0,
        "parent_station": 0,
        "stop_timezone": "Europe\/Helsinki",
        "wheelchair_boarding": 0
    },
    "1168": {
        "stop_code": "1168",
        "stop_name": "Alakartanontie",
        "stop_desc": "",
        "stop_lat": 60.59738,
        "stop_lon": 22.39219,
        "zone_id": "F\u00d6LI",
        "stop_url": "",
        "location_type": 0,
        "parent_station": 0,
        "stop_timezone": "Europe\/Helsinki",
        "wheelchair_boarding": 0
    },
    "1169": {
        "stop_code": "1169",
        "stop_name": "Aluetalo",
        "stop_desc": "",
        "stop_lat": 60.59347,
        "stop_lon": 22.3848,
        "zone_id": "F\u00d6LI",
        "stop_url": "",
        "location_type": 0,
        "parent_station": 0,
        "stop_timezone": "Europe\/Helsinki",
        "wheelchair_boarding": 0
    },
    "117": {
        "stop_code": "117",
        "stop_name": "Aninkaistensilta",
        "stop_desc": "",
        "stop_lat": 60.45834,
        "stop_lon": 22.26782,
        "zone_id": "F\u00d6LI",
        "stop_url": "",
        "location_type": 0,
        "parent_station": 0,
        "stop_timezone": "Europe\/Helsinki",
        "wheelchair_boarding": 0
    },
    "1170": {
        "stop_code": "1170",
        "stop_name": "Paattisten kirkko",
        "stop_desc": "",
        "stop_lat": 60.59146,
        "stop_lon": 22.38009,
        "zone_id": "F\u00d6LI",
        "stop_url": "",
        "location_type": 0,
        "parent_station": 0,
        "stop_timezone": "Europe\/Helsinki",
        "wheelchair_boarding": 0
    },
    "1171": {
        "stop_code": "1171",
        "stop_name": "Paattisten kirkko",
        "stop_desc": "",
        "stop_lat": 60.59071,
        "stop_lon": 22.37799,
        "zone_id": "F\u00d6LI",
        "stop_url": "",
        "location_type": 0,
        "parent_station": 0,
        "stop_timezone": "Europe\/Helsinki",
        "wheelchair_boarding": 0
    },
    "1172": {
        "stop_code": "1172",
        "stop_name": "M\u00e4nnist\u00f6ntie",
        "stop_desc": "",
        "stop_lat": 60.58798,
        "stop_lon": 22.37186,
        "zone_id": "F\u00d6LI",
        "stop_url": "",
        "location_type": 0,
        "parent_station": 0,
        "stop_timezone": "Europe\/Helsinki",
        "wheelchair_boarding": 0
    },
    "1173": {
        "stop_code": "1173",
        "stop_name": "M\u00e4nnist\u00f6ntie",
        "stop_desc": "",
        "stop_lat": 60.58649,
        "stop_lon": 22.36712,
        "zone_id": "F\u00d6LI",
        "stop_url": "",
        "location_type": 0,
        "parent_station": 0,
        "stop_timezone": "Europe\/Helsinki",
        "wheelchair_boarding": 0
    },
    "1174": {
        "stop_code": "1174",
        "stop_name": "Sakontie",
        "stop_desc": "",
        "stop_lat": 60.58517,
        "stop_lon": 22.36084,
        "zone_id": "F\u00d6LI",
        "stop_url": "",
        "location_type": 0,
        "parent_station": 0,
        "stop_timezone": "Europe\/Helsinki",
        "wheelchair_boarding": 0
    },
    "1175": {
        "stop_code": "1175",
        "stop_name": "Kreivil\u00e4n koulu",
        "stop_desc": "",
        "stop_lat": 60.58258,
        "stop_lon": 22.35331,
        "zone_id": "F\u00d6LI",
        "stop_url": "",
        "location_type": 0,
        "parent_station": 0,
        "stop_timezone": "Europe\/Helsinki",
        "wheelchair_boarding": 0
    },
    "1176": {
        "stop_code": "1176",
        "stop_name": "Auvaism\u00e4entie",
        "stop_desc": "",
        "stop_lat": 60.5772,
        "stop_lon": 22.35,
        "zone_id": "F\u00d6LI",
        "stop_url": "",
        "location_type": 0,
        "parent_station": 0,
        "stop_timezone": "Europe\/Helsinki",
        "wheelchair_boarding": 0
    },
    "1177": {
        "stop_code": "1177",
        "stop_name": "Krouvinkuja",
        "stop_desc": "",
        "stop_lat": 60.57311,
        "stop_lon": 22.34777,
        "zone_id": "F\u00d6LI",
        "stop_url": "",
        "location_type": 0,
        "parent_station": 0,
        "stop_timezone": "Europe\/Helsinki",
        "wheelchair_boarding": 0
    },
    "1178": {
        "stop_code": "1178",
        "stop_name": "Krouvintie",
        "stop_desc": "",
        "stop_lat": 60.57065,
        "stop_lon": 22.34522,
        "zone_id": "F\u00d6LI",
        "stop_url": "",
        "location_type": 0,
        "parent_station": 0,
        "stop_timezone": "Europe\/Helsinki",
        "wheelchair_boarding": 0
    },
    "1179": {
        "stop_code": "1179",
        "stop_name": "Auvaistentie",
        "stop_desc": "",
        "stop_lat": 60.56757,
        "stop_lon": 22.33927,
        "zone_id": "F\u00d6LI",
        "stop_url": "",
        "location_type": 0,
        "parent_station": 0,
        "stop_timezone": "Europe\/Helsinki",
        "wheelchair_boarding": 0
    },
    "118": {
        "stop_code": "118",
        "stop_name": "Savikatu",
        "stop_desc": "",
        "stop_lat": 60.4555,
        "stop_lon": 22.30268,
        "zone_id": "F\u00d6LI",
        "stop_url": "",
        "location_type": 0,
        "parent_station": 0,
        "stop_timezone": "Europe\/Helsinki",
        "wheelchair_boarding": 0
    },
    "1180": {
        "stop_code": "1180",
        "stop_name": "M\u00e4ntysaarentie",
        "stop_desc": "",
        "stop_lat": 60.56578,
        "stop_lon": 22.33564,
        "zone_id": "F\u00d6LI",
        "stop_url": "",
        "location_type": 0,
        "parent_station": 0,
        "stop_timezone": "Europe\/Helsinki",
        "wheelchair_boarding": 0
    },
    "1181": {
        "stop_code": "1181",
        "stop_name": "Suokallionkatu",
        "stop_desc": "",
        "stop_lat": 60.53789,
        "stop_lon": 22.29316,
        "zone_id": "F\u00d6LI",
        "stop_url": "",
        "location_type": 0,
        "parent_station": 0,
        "stop_timezone": "Europe\/Helsinki",
        "wheelchair_boarding": 0
    },
    "1183": {
        "stop_code": "1183",
        "stop_name": "Ketussuontie",
        "stop_desc": "",
        "stop_lat": 60.51299,
        "stop_lon": 22.30402,
        "zone_id": "F\u00d6LI",
        "stop_url": "",
        "location_type": 0,
        "parent_station": 0,
        "stop_timezone": "Europe\/Helsinki",
        "wheelchair_boarding": 0
    },
    "1184": {
        "stop_code": "1184",
        "stop_name": "Ollinkuja",
        "stop_desc": "",
        "stop_lat": 60.35672,
        "stop_lon": 22.27475,
        "zone_id": "F\u00d6LI",
        "stop_url": "",
        "location_type": 0,
        "parent_station": 0,
        "stop_timezone": "Europe\/Helsinki",
        "wheelchair_boarding": 0
    },
    "1185": {
        "stop_code": "1185",
        "stop_name": "Urpontie",
        "stop_desc": "",
        "stop_lat": 60.45973,
        "stop_lon": 22.26931,
        "zone_id": "F\u00d6LI",
        "stop_url": "",
        "location_type": 0,
        "parent_station": 0,
        "stop_timezone": "Europe\/Helsinki",
        "wheelchair_boarding": 0
    },
    "1187": {
        "stop_code": "1187",
        "stop_name": "Rykmentintie",
        "stop_desc": "",
        "stop_lat": 60.43155,
        "stop_lon": 22.24621,
        "zone_id": "F\u00d6LI",
        "stop_url": "",
        "location_type": 0,
        "parent_station": 0,
        "stop_timezone": "Europe\/Helsinki",
        "wheelchair_boarding": 0
    },
    "1188": {
        "stop_code": "1188",
        "stop_name": "Ojarinne",
        "stop_desc": "",
        "stop_lat": 60.43467,
        "stop_lon": 22.24531,
        "zone_id": "F\u00d6LI",
        "stop_url": "",
        "location_type": 0,
        "parent_station": 0,
        "stop_timezone": "Europe\/Helsinki",
        "wheelchair_boarding": 0
    },
    "1189": {
        "stop_code": "1189",
        "stop_name": "Hannunniittu",
        "stop_desc": "",
        "stop_lat": 60.45861,
        "stop_lon": 22.32356,
        "zone_id": "F\u00d6LI",
        "stop_url": "",
        "location_type": 0,
        "parent_station": 0,
        "stop_timezone": "Europe\/Helsinki",
        "wheelchair_boarding": 0
    },
    "119": {
        "stop_code": "119",
        "stop_name": "Karjakuja",
        "stop_desc": "",
        "stop_lat": 60.45558,
        "stop_lon": 22.30653,
        "zone_id": "F\u00d6LI",
        "stop_url": "",
        "location_type": 0,
        "parent_station": 0,
        "stop_timezone": "Europe\/Helsinki",
        "wheelchair_boarding": 0
    },
    "1190": {
        "stop_code": "1190",
        "stop_name": "C. O. Malmin koulu",
        "stop_desc": "",
        "stop_lat": 60.45703,
        "stop_lon": 22.32618,
        "zone_id": "F\u00d6LI",
        "stop_url": "",
        "location_type": 0,
        "parent_station": 0,
        "stop_timezone": "Europe\/Helsinki",
        "wheelchair_boarding": 0
    },
    "1191": {
        "stop_code": "1191",
        "stop_name": "Tanhuankatu",
        "stop_desc": "",
        "stop_lat": 60.4543,
        "stop_lon": 22.32524,
        "zone_id": "F\u00d6LI",
        "stop_url": "",
        "location_type": 0,
        "parent_station": 0,
        "stop_timezone": "Europe\/Helsinki",
        "wheelchair_boarding": 0
    },
    "1192": {
        "stop_code": "1192",
        "stop_name": "Jaaninpuisto",
        "stop_desc": "",
        "stop_lat": 60.45102,
        "stop_lon": 22.32952,
        "zone_id": "F\u00d6LI",
        "stop_url": "",
        "location_type": 0,
        "parent_station": 0,
        "stop_timezone": "Europe\/Helsinki",
        "wheelchair_boarding": 0
    },
    "1197": {
        "stop_code": "1197",
        "stop_name": "Jaaninpuisto",
        "stop_desc": "",
        "stop_lat": 60.45119,
        "stop_lon": 22.32867,
        "zone_id": "F\u00d6LI",
        "stop_url": "",
        "location_type": 0,
        "parent_station": 0,
        "stop_timezone": "Europe\/Helsinki",
        "wheelchair_boarding": 0
    },
    "1198": {
        "stop_code": "1198",
        "stop_name": "Tanhuankatu",
        "stop_desc": "",
        "stop_lat": 60.45463,
        "stop_lon": 22.3257,
        "zone_id": "F\u00d6LI",
        "stop_url": "",
        "location_type": 0,
        "parent_station": 0,
        "stop_timezone": "Europe\/Helsinki",
        "wheelchair_boarding": 0
    },
    "1199": {
        "stop_code": "1199",
        "stop_name": "C. O. Malmin koulu",
        "stop_desc": "",
        "stop_lat": 60.45751,
        "stop_lon": 22.32549,
        "zone_id": "F\u00d6LI",
        "stop_url": "",
        "location_type": 0,
        "parent_station": 0,
        "stop_timezone": "Europe\/Helsinki",
        "wheelchair_boarding": 0
    },
    "12": {
        "stop_code": "12",
        "stop_name": "Klassikonpolku",
        "stop_desc": "",
        "stop_lat": 60.44711,
        "stop_lon": 22.26094,
        "zone_id": "F\u00d6LI",
        "stop_url": "",
        "location_type": 0,
        "parent_station": 0,
        "stop_timezone": "Europe\/Helsinki",
        "wheelchair_boarding": 0
    },
    "120": {
        "stop_code": "120",
        "stop_name": "Tammitie",
        "stop_desc": "",
        "stop_lat": 60.45574,
        "stop_lon": 22.31065,
        "zone_id": "F\u00d6LI",
        "stop_url": "",
        "location_type": 0,
        "parent_station": 0,
        "stop_timezone": "Europe\/Helsinki",
        "wheelchair_boarding": 0
    },
    "121": {
        "stop_code": "121",
        "stop_name": "Mets\u00e4tie",
        "stop_desc": "",
        "stop_lat": 60.45681,
        "stop_lon": 22.31552,
        "zone_id": "F\u00d6LI",
        "stop_url": "",
        "location_type": 0,
        "parent_station": 0,
        "stop_timezone": "Europe\/Helsinki",
        "wheelchair_boarding": 0
    },
    "1211": {
        "stop_code": "1211",
        "stop_name": "Ketussuontie",
        "stop_desc": "",
        "stop_lat": 60.51284,
        "stop_lon": 22.30459,
        "zone_id": "F\u00d6LI",
        "stop_url": "",
        "location_type": 0,
        "parent_station": 0,
        "stop_timezone": "Europe\/Helsinki",
        "wheelchair_boarding": 0
    },
    "1212": {
        "stop_code": "1212",
        "stop_name": "Uittamo City",
        "stop_desc": "",
        "stop_lat": 60.42129,
        "stop_lon": 22.2642,
        "zone_id": "F\u00d6LI",
        "stop_url": "",
        "location_type": 0,
        "parent_station": 0,
        "stop_timezone": "Europe\/Helsinki",
        "wheelchair_boarding": 0
    },
    "1213": {
        "stop_code": "1213",
        "stop_name": "Kannuskatu",
        "stop_desc": "",
        "stop_lat": 60.42149,
        "stop_lon": 22.26764,
        "zone_id": "F\u00d6LI",
        "stop_url": "",
        "location_type": 0,
        "parent_station": 0,
        "stop_timezone": "Europe\/Helsinki",
        "wheelchair_boarding": 0
    },
    "1214": {
        "stop_code": "1214",
        "stop_name": "Kannuskatu",
        "stop_desc": "",
        "stop_lat": 60.42151,
        "stop_lon": 22.26686,
        "zone_id": "F\u00d6LI",
        "stop_url": "",
        "location_type": 0,
        "parent_station": 0,
        "stop_timezone": "Europe\/Helsinki",
        "wheelchair_boarding": 0
    },
    "1215": {
        "stop_code": "1215",
        "stop_name": "Uittamo City",
        "stop_desc": "",
        "stop_lat": 60.42116,
        "stop_lon": 22.26311,
        "zone_id": "F\u00d6LI",
        "stop_url": "",
        "location_type": 0,
        "parent_station": 0,
        "stop_timezone": "Europe\/Helsinki",
        "wheelchair_boarding": 0
    },
    "1216": {
        "stop_code": "1216",
        "stop_name": "J\u00e4k\u00e4l\u00e4puisto",
        "stop_desc": "",
        "stop_lat": 60.4292,
        "stop_lon": 22.26579,
        "zone_id": "F\u00d6LI",
        "stop_url": "",
        "location_type": 0,
        "parent_station": 0,
        "stop_timezone": "Europe\/Helsinki",
        "wheelchair_boarding": 0
    },
    "1217": {
        "stop_code": "1217",
        "stop_name": "J\u00e4k\u00e4l\u00e4puisto",
        "stop_desc": "",
        "stop_lat": 60.42886,
        "stop_lon": 22.26572,
        "zone_id": "F\u00d6LI",
        "stop_url": "",
        "location_type": 0,
        "parent_station": 0,
        "stop_timezone": "Europe\/Helsinki",
        "wheelchair_boarding": 0
    },
    "1218": {
        "stop_code": "1218",
        "stop_name": "Rautatehtaankatu",
        "stop_desc": "",
        "stop_lat": 60.44943,
        "stop_lon": 22.20591,
        "zone_id": "F\u00d6LI",
        "stop_url": "",
        "location_type": 0,
        "parent_station": 0,
        "stop_timezone": "Europe\/Helsinki",
        "wheelchair_boarding": 0
    },
    "122": {
        "stop_code": "122",
        "stop_name": "Kotim\u00e4enkatu",
        "stop_desc": "",
        "stop_lat": 60.45794,
        "stop_lon": 22.31902,
        "zone_id": "F\u00d6LI",
        "stop_url": "",
        "location_type": 0,
        "parent_station": 0,
        "stop_timezone": "Europe\/Helsinki",
        "wheelchair_boarding": 0
    },
    "1220": {
        "stop_code": "1220",
        "stop_name": "Rautatehtaankatu",
        "stop_desc": "",
        "stop_lat": 60.4497,
        "stop_lon": 22.20334,
        "zone_id": "F\u00d6LI",
        "stop_url": "",
        "location_type": 0,
        "parent_station": 0,
        "stop_timezone": "Europe\/Helsinki",
        "wheelchair_boarding": 0
    },
    "1221": {
        "stop_code": "1221",
        "stop_name": "Rautatehtaankatu",
        "stop_desc": "",
        "stop_lat": 60.44913,
        "stop_lon": 22.20707,
        "zone_id": "F\u00d6LI",
        "stop_url": "",
        "location_type": 0,
        "parent_station": 0,
        "stop_timezone": "Europe\/Helsinki",
        "wheelchair_boarding": 0
    },
    "1222": {
        "stop_code": "1222",
        "stop_name": "Ahtolantie",
        "stop_desc": "",
        "stop_lat": 60.43909,
        "stop_lon": 22.31984,
        "zone_id": "F\u00d6LI",
        "stop_url": "",
        "location_type": 0,
        "parent_station": 0,
        "stop_timezone": "Europe\/Helsinki",
        "wheelchair_boarding": 0
    },
    "1223": {
        "stop_code": "1223",
        "stop_name": "Polttolaitos",
        "stop_desc": "",
        "stop_lat": 60.48147,
        "stop_lon": 22.31507,
        "zone_id": "F\u00d6LI",
        "stop_url": "",
        "location_type": 0,
        "parent_station": 0,
        "stop_timezone": "Europe\/Helsinki",
        "wheelchair_boarding": 0
    },
    "1224": {
        "stop_code": "1224",
        "stop_name": "Kytkinkatu",
        "stop_desc": "",
        "stop_lat": 60.4826,
        "stop_lon": 22.31852,
        "zone_id": "F\u00d6LI",
        "stop_url": "",
        "location_type": 0,
        "parent_station": 0,
        "stop_timezone": "Europe\/Helsinki",
        "wheelchair_boarding": 0
    },
    "1228": {
        "stop_code": "1228",
        "stop_name": "Polttolaitos",
        "stop_desc": "",
        "stop_lat": 60.48163,
        "stop_lon": 22.31405,
        "zone_id": "F\u00d6LI",
        "stop_url": "",
        "location_type": 0,
        "parent_station": 0,
        "stop_timezone": "Europe\/Helsinki",
        "wheelchair_boarding": 0
    },
    "1229": {
        "stop_code": "1229",
        "stop_name": "Ruopanhaara",
        "stop_desc": "",
        "stop_lat": 60.49608,
        "stop_lon": 22.29432,
        "zone_id": "F\u00d6LI",
        "stop_url": "",
        "location_type": 0,
        "parent_station": 0,
        "stop_timezone": "Europe\/Helsinki",
        "wheelchair_boarding": 0
    },
    "123": {
        "stop_code": "123",
        "stop_name": "Hannunniittu",
        "stop_desc": "",
        "stop_lat": 60.45909,
        "stop_lon": 22.324,
        "zone_id": "F\u00d6LI",
        "stop_url": "",
        "location_type": 0,
        "parent_station": 0,
        "stop_timezone": "Europe\/Helsinki",
        "wheelchair_boarding": 0
    },
    "1230": {
        "stop_code": "1230",
        "stop_name": "Urushaara",
        "stop_desc": "",
        "stop_lat": 60.49856,
        "stop_lon": 22.29543,
        "zone_id": "F\u00d6LI",
        "stop_url": "",
        "location_type": 0,
        "parent_station": 0,
        "stop_timezone": "Europe\/Helsinki",
        "wheelchair_boarding": 0
    },
    "1231": {
        "stop_code": "1231",
        "stop_name": "Vajossuonkatu",
        "stop_desc": "",
        "stop_lat": 60.49979,
        "stop_lon": 22.29546,
        "zone_id": "F\u00d6LI",
        "stop_url": "",
        "location_type": 0,
        "parent_station": 0,
        "stop_timezone": "Europe\/Helsinki",
        "wheelchair_boarding": 0
    },
    "1232": {
        "stop_code": "1232",
        "stop_name": "Urusvuori",
        "stop_desc": "",
        "stop_lat": 60.50217,
        "stop_lon": 22.29726,
        "zone_id": "F\u00d6LI",
        "stop_url": "",
        "location_type": 0,
        "parent_station": 0,
        "stop_timezone": "Europe\/Helsinki",
        "wheelchair_boarding": 0
    },
    "1233": {
        "stop_code": "1233",
        "stop_name": "Vajossuonkatu",
        "stop_desc": "",
        "stop_lat": 60.49936,
        "stop_lon": 22.29523,
        "zone_id": "F\u00d6LI",
        "stop_url": "",
        "location_type": 0,
        "parent_station": 0,
        "stop_timezone": "Europe\/Helsinki",
        "wheelchair_boarding": 0
    },
    "1234": {
        "stop_code": "1234",
        "stop_name": "Urushaara",
        "stop_desc": "",
        "stop_lat": 60.49808,
        "stop_lon": 22.29497,
        "zone_id": "F\u00d6LI",
        "stop_url": "",
        "location_type": 0,
        "parent_station": 0,
        "stop_timezone": "Europe\/Helsinki",
        "wheelchair_boarding": 0
    },
    "1235": {
        "stop_code": "1235",
        "stop_name": "Niemenkulmantie",
        "stop_desc": "",
        "stop_lat": 60.36009,
        "stop_lon": 22.17647,
        "zone_id": "F\u00d6LI",
        "stop_url": "",
        "location_type": 0,
        "parent_station": 0,
        "stop_timezone": "Europe\/Helsinki",
        "wheelchair_boarding": 0
    },
    "1236": {
        "stop_code": "1236",
        "stop_name": "Lustikullantie",
        "stop_desc": "",
        "stop_lat": 60.35736,
        "stop_lon": 22.175,
        "zone_id": "F\u00d6LI",
        "stop_url": "",
        "location_type": 0,
        "parent_station": 0,
        "stop_timezone": "Europe\/Helsinki",
        "wheelchair_boarding": 0
    },
    "1237": {
        "stop_code": "1237",
        "stop_name": "Kollinmets\u00e4ntie",
        "stop_desc": "",
        "stop_lat": 60.35369,
        "stop_lon": 22.17883,
        "zone_id": "F\u00d6LI",
        "stop_url": "",
        "location_type": 0,
        "parent_station": 0,
        "stop_timezone": "Europe\/Helsinki",
        "wheelchair_boarding": 0
    },
    "1238": {
        "stop_code": "1238",
        "stop_name": "Kakskertatalo",
        "stop_desc": "",
        "stop_lat": 60.34975,
        "stop_lon": 22.18413,
        "zone_id": "F\u00d6LI",
        "stop_url": "",
        "location_type": 0,
        "parent_station": 0,
        "stop_timezone": "Europe\/Helsinki",
        "wheelchair_boarding": 0
    },
    "1239": {
        "stop_code": "1239",
        "stop_name": "Raustvuorentie",
        "stop_desc": "",
        "stop_lat": 60.34596,
        "stop_lon": 22.18514,
        "zone_id": "F\u00d6LI",
        "stop_url": "",
        "location_type": 0,
        "parent_station": 0,
        "stop_timezone": "Europe\/Helsinki",
        "wheelchair_boarding": 0
    },
    "124": {
        "stop_code": "124",
        "stop_name": "Pikisaari",
        "stop_desc": "",
        "stop_lat": 60.42658,
        "stop_lon": 22.20372,
        "zone_id": "F\u00d6LI",
        "stop_url": "",
        "location_type": 0,
        "parent_station": 0,
        "stop_timezone": "Europe\/Helsinki",
        "wheelchair_boarding": 0
    },
    "1240": {
        "stop_code": "1240",
        "stop_name": "J\u00e4rvi-Penil\u00e4ntie",
        "stop_desc": "",
        "stop_lat": 60.34691,
        "stop_lon": 22.197,
        "zone_id": "F\u00d6LI",
        "stop_url": "",
        "location_type": 0,
        "parent_station": 0,
        "stop_timezone": "Europe\/Helsinki",
        "wheelchair_boarding": 0
    },
    "1241": {
        "stop_code": "1241",
        "stop_name": "Kes\u00e4niementie",
        "stop_desc": "",
        "stop_lat": 60.3474,
        "stop_lon": 22.20362,
        "zone_id": "F\u00d6LI",
        "stop_url": "",
        "location_type": 0,
        "parent_station": 0,
        "stop_timezone": "Europe\/Helsinki",
        "wheelchair_boarding": 0
    },
    "1242": {
        "stop_code": "1242",
        "stop_name": "Kierl\u00e4ntie",
        "stop_desc": "",
        "stop_lat": 60.34855,
        "stop_lon": 22.21194,
        "zone_id": "F\u00d6LI",
        "stop_url": "",
        "location_type": 0,
        "parent_station": 0,
        "stop_timezone": "Europe\/Helsinki",
        "wheelchair_boarding": 0
    },
    "1243": {
        "stop_code": "1243",
        "stop_name": "Myllykyl\u00e4ntie",
        "stop_desc": "",
        "stop_lat": 60.35082,
        "stop_lon": 22.2215,
        "zone_id": "F\u00d6LI",
        "stop_url": "",
        "location_type": 0,
        "parent_station": 0,
        "stop_timezone": "Europe\/Helsinki",
        "wheelchair_boarding": 0
    },
    "1244": {
        "stop_code": "1244",
        "stop_name": "M\u00e4yr\u00e4m\u00e4entie",
        "stop_desc": "",
        "stop_lat": 60.35244,
        "stop_lon": 22.23213,
        "zone_id": "F\u00d6LI",
        "stop_url": "",
        "location_type": 0,
        "parent_station": 0,
        "stop_timezone": "Europe\/Helsinki",
        "wheelchair_boarding": 0
    },
    "1245": {
        "stop_code": "1245",
        "stop_name": "Kalliolantie",
        "stop_desc": "",
        "stop_lat": 60.35361,
        "stop_lon": 22.24002,
        "zone_id": "F\u00d6LI",
        "stop_url": "",
        "location_type": 0,
        "parent_station": 0,
        "stop_timezone": "Europe\/Helsinki",
        "wheelchair_boarding": 0
    },
    "1246": {
        "stop_code": "1246",
        "stop_name": "Lempp\u00e4l\u00e4ntie",
        "stop_desc": "",
        "stop_lat": 60.35387,
        "stop_lon": 22.2477,
        "zone_id": "F\u00d6LI",
        "stop_url": "",
        "location_type": 0,
        "parent_station": 0,
        "stop_timezone": "Europe\/Helsinki",
        "wheelchair_boarding": 0
    },
    "1247": {
        "stop_code": "1247",
        "stop_name": "Aatilan rantatie",
        "stop_desc": "",
        "stop_lat": 60.35383,
        "stop_lon": 22.25414,
        "zone_id": "F\u00d6LI",
        "stop_url": "",
        "location_type": 0,
        "parent_station": 0,
        "stop_timezone": "Europe\/Helsinki",
        "wheelchair_boarding": 0
    },
    "1248": {
        "stop_code": "1248",
        "stop_name": "Aatilanhaka",
        "stop_desc": "",
        "stop_lat": 60.35363,
        "stop_lon": 22.25801,
        "zone_id": "F\u00d6LI",
        "stop_url": "",
        "location_type": 0,
        "parent_station": 0,
        "stop_timezone": "Europe\/Helsinki",
        "wheelchair_boarding": 0
    },
    "1249": {
        "stop_code": "1249",
        "stop_name": "Kenraalintie",
        "stop_desc": "",
        "stop_lat": 60.35565,
        "stop_lon": 22.26703,
        "zone_id": "F\u00d6LI",
        "stop_url": "",
        "location_type": 0,
        "parent_station": 0,
        "stop_timezone": "Europe\/Helsinki",
        "wheelchair_boarding": 0
    },
    "125": {
        "stop_code": "125",
        "stop_name": "Kutterintie",
        "stop_desc": "",
        "stop_lat": 60.42891,
        "stop_lon": 22.22378,
        "zone_id": "F\u00d6LI",
        "stop_url": "",
        "location_type": 0,
        "parent_station": 0,
        "stop_timezone": "Europe\/Helsinki",
        "wheelchair_boarding": 0
    },
    "1250": {
        "stop_code": "1250",
        "stop_name": "Ollinkuja",
        "stop_desc": "",
        "stop_lat": 60.35666,
        "stop_lon": 22.27448,
        "zone_id": "F\u00d6LI",
        "stop_url": "",
        "location_type": 0,
        "parent_station": 0,
        "stop_timezone": "Europe\/Helsinki",
        "wheelchair_boarding": 0
    },
    "1251": {
        "stop_code": "1251",
        "stop_name": "Sinapintie",
        "stop_desc": "",
        "stop_lat": 60.35896,
        "stop_lon": 22.28178,
        "zone_id": "F\u00d6LI",
        "stop_url": "",
        "location_type": 0,
        "parent_station": 0,
        "stop_timezone": "Europe\/Helsinki",
        "wheelchair_boarding": 0
    },
    "1252": {
        "stop_code": "1252",
        "stop_name": "Orvontie",
        "stop_desc": "",
        "stop_lat": 60.36481,
        "stop_lon": 22.27768,
        "zone_id": "F\u00d6LI",
        "stop_url": "",
        "location_type": 0,
        "parent_station": 0,
        "stop_timezone": "Europe\/Helsinki",
        "wheelchair_boarding": 0
    },
    "1253": {
        "stop_code": "1253",
        "stop_name": "J\u00e4rvenp\u00e4\u00e4ntie",
        "stop_desc": "",
        "stop_lat": 60.36988,
        "stop_lon": 22.27649,
        "zone_id": "F\u00d6LI",
        "stop_url": "",
        "location_type": 0,
        "parent_station": 0,
        "stop_timezone": "Europe\/Helsinki",
        "wheelchair_boarding": 0
    },
    "1254": {
        "stop_code": "1254",
        "stop_name": "Tiisalantie",
        "stop_desc": "",
        "stop_lat": 60.37381,
        "stop_lon": 22.2704,
        "zone_id": "F\u00d6LI",
        "stop_url": "",
        "location_type": 0,
        "parent_station": 0,
        "stop_timezone": "Europe\/Helsinki",
        "wheelchair_boarding": 0
    },
    "1255": {
        "stop_code": "1255",
        "stop_name": "Hiidenkiukaantie",
        "stop_desc": "",
        "stop_lat": 60.37137,
        "stop_lon": 22.26293,
        "zone_id": "F\u00d6LI",
        "stop_url": "",
        "location_type": 0,
        "parent_station": 0,
        "stop_timezone": "Europe\/Helsinki",
        "wheelchair_boarding": 0
    },
    "1256": {
        "stop_code": "1256",
        "stop_name": "K\u00e4p\u00e4l\u00e4m\u00e4ki",
        "stop_desc": "",
        "stop_lat": 60.37042,
        "stop_lon": 22.25445,
        "zone_id": "F\u00d6LI",
        "stop_url": "",
        "location_type": 0,
        "parent_station": 0,
        "stop_timezone": "Europe\/Helsinki",
        "wheelchair_boarding": 0
    },
    "1257": {
        "stop_code": "1257",
        "stop_name": "Vedenvuotama",
        "stop_desc": "",
        "stop_lat": 60.36973,
        "stop_lon": 22.24801,
        "zone_id": "F\u00d6LI",
        "stop_url": "",
        "location_type": 0,
        "parent_station": 0,
        "stop_timezone": "Europe\/Helsinki",
        "wheelchair_boarding": 0
    },
    "1259": {
        "stop_code": "1259",
        "stop_name": "Brinkhall",
        "stop_desc": "",
        "stop_lat": 60.36767,
        "stop_lon": 22.24026,
        "zone_id": "F\u00d6LI",
        "stop_url": "",
        "location_type": 0,
        "parent_station": 0,
        "stop_timezone": "Europe\/Helsinki",
        "wheelchair_boarding": 0
    },
    "126": {
        "stop_code": "126",
        "stop_name": "Latokari",
        "stop_desc": "",
        "stop_lat": 60.42963,
        "stop_lon": 22.22037,
        "zone_id": "F\u00d6LI",
        "stop_url": "",
        "location_type": 0,
        "parent_station": 0,
        "stop_timezone": "Europe\/Helsinki",
        "wheelchair_boarding": 0
    },
    "1260": {
        "stop_code": "1260",
        "stop_name": "Lehtikuusitie",
        "stop_desc": "",
        "stop_lat": 60.3664,
        "stop_lon": 22.22473,
        "zone_id": "F\u00d6LI",
        "stop_url": "",
        "location_type": 0,
        "parent_station": 0,
        "stop_timezone": "Europe\/Helsinki",
        "wheelchair_boarding": 0
    },
    "1262": {
        "stop_code": "1262",
        "stop_name": "Kakskerran kirkko",
        "stop_desc": "",
        "stop_lat": 60.36678,
        "stop_lon": 22.20958,
        "zone_id": "F\u00d6LI",
        "stop_url": "",
        "location_type": 0,
        "parent_station": 0,
        "stop_timezone": "Europe\/Helsinki",
        "wheelchair_boarding": 0
    },
    "1263": {
        "stop_code": "1263",
        "stop_name": "Varvintie",
        "stop_desc": "",
        "stop_lat": 60.36395,
        "stop_lon": 22.19574,
        "zone_id": "F\u00d6LI",
        "stop_url": "",
        "location_type": 0,
        "parent_station": 0,
        "stop_timezone": "Europe\/Helsinki",
        "wheelchair_boarding": 0
    },
    "1264": {
        "stop_code": "1264",
        "stop_name": "Kollintie",
        "stop_desc": "",
        "stop_lat": 60.36175,
        "stop_lon": 22.18834,
        "zone_id": "F\u00d6LI",
        "stop_url": "",
        "location_type": 0,
        "parent_station": 0,
        "stop_timezone": "Europe\/Helsinki",
        "wheelchair_boarding": 0
    },
    "1265": {
        "stop_code": "1265",
        "stop_name": "T\u00f6yr\u00e4stie",
        "stop_desc": "",
        "stop_lat": 60.36067,
        "stop_lon": 22.18311,
        "zone_id": "F\u00d6LI",
        "stop_url": "",
        "location_type": 0,
        "parent_station": 0,
        "stop_timezone": "Europe\/Helsinki",
        "wheelchair_boarding": 0
    },
    "1267": {
        "stop_code": "1267",
        "stop_name": "T\u00f6yr\u00e4stie",
        "stop_desc": "",
        "stop_lat": 60.36103,
        "stop_lon": 22.18464,
        "zone_id": "F\u00d6LI",
        "stop_url": "",
        "location_type": 0,
        "parent_station": 0,
        "stop_timezone": "Europe\/Helsinki",
        "wheelchair_boarding": 0
    },
    "1268": {
        "stop_code": "1268",
        "stop_name": "Kollintie",
        "stop_desc": "",
        "stop_lat": 60.3617,
        "stop_lon": 22.18977,
        "zone_id": "F\u00d6LI",
        "stop_url": "",
        "location_type": 0,
        "parent_station": 0,
        "stop_timezone": "Europe\/Helsinki",
        "wheelchair_boarding": 0
    },
    "1269": {
        "stop_code": "1269",
        "stop_name": "Varvintie",
        "stop_desc": "",
        "stop_lat": 60.36431,
        "stop_lon": 22.19795,
        "zone_id": "F\u00d6LI",
        "stop_url": "",
        "location_type": 0,
        "parent_station": 0,
        "stop_timezone": "Europe\/Helsinki",
        "wheelchair_boarding": 0
    },
    "127": {
        "stop_code": "127",
        "stop_name": "Pikisaari",
        "stop_desc": "",
        "stop_lat": 60.42697,
        "stop_lon": 22.2053,
        "zone_id": "F\u00d6LI",
        "stop_url": "",
        "location_type": 0,
        "parent_station": 0,
        "stop_timezone": "Europe\/Helsinki",
        "wheelchair_boarding": 0
    },
    "1270": {
        "stop_code": "1270",
        "stop_name": "Kakskerran kirkko",
        "stop_desc": "",
        "stop_lat": 60.3668,
        "stop_lon": 22.21064,
        "zone_id": "F\u00d6LI",
        "stop_url": "",
        "location_type": 0,
        "parent_station": 0,
        "stop_timezone": "Europe\/Helsinki",
        "wheelchair_boarding": 0
    },
    "1272": {
        "stop_code": "1272",
        "stop_name": "Lehtikuusitie",
        "stop_desc": "",
        "stop_lat": 60.36609,
        "stop_lon": 22.22577,
        "zone_id": "F\u00d6LI",
        "stop_url": "",
        "location_type": 0,
        "parent_station": 0,
        "stop_timezone": "Europe\/Helsinki",
        "wheelchair_boarding": 0
    },
    "1273": {
        "stop_code": "1273",
        "stop_name": "Brinkhall",
        "stop_desc": "",
        "stop_lat": 60.36804,
        "stop_lon": 22.24152,
        "zone_id": "F\u00d6LI",
        "stop_url": "",
        "location_type": 0,
        "parent_station": 0,
        "stop_timezone": "Europe\/Helsinki",
        "wheelchair_boarding": 0
    },
    "1275": {
        "stop_code": "1275",
        "stop_name": "Vedenvuotama",
        "stop_desc": "",
        "stop_lat": 60.36987,
        "stop_lon": 22.24906,
        "zone_id": "F\u00d6LI",
        "stop_url": "",
        "location_type": 0,
        "parent_station": 0,
        "stop_timezone": "Europe\/Helsinki",
        "wheelchair_boarding": 0
    },
    "1276": {
        "stop_code": "1276",
        "stop_name": "K\u00e4p\u00e4l\u00e4m\u00e4ki",
        "stop_desc": "",
        "stop_lat": 60.37008,
        "stop_lon": 22.256,
        "zone_id": "F\u00d6LI",
        "stop_url": "",
        "location_type": 0,
        "parent_station": 0,
        "stop_timezone": "Europe\/Helsinki",
        "wheelchair_boarding": 0
    },
    "1277": {
        "stop_code": "1277",
        "stop_name": "Hiidenkiukaantie",
        "stop_desc": "",
        "stop_lat": 60.37166,
        "stop_lon": 22.26437,
        "zone_id": "F\u00d6LI",
        "stop_url": "",
        "location_type": 0,
        "parent_station": 0,
        "stop_timezone": "Europe\/Helsinki",
        "wheelchair_boarding": 0
    },
    "1278": {
        "stop_code": "1278",
        "stop_name": "Tiisalantie",
        "stop_desc": "",
        "stop_lat": 60.37364,
        "stop_lon": 22.26993,
        "zone_id": "F\u00d6LI",
        "stop_url": "",
        "location_type": 0,
        "parent_station": 0,
        "stop_timezone": "Europe\/Helsinki",
        "wheelchair_boarding": 0
    },
    "128": {
        "stop_code": "128",
        "stop_name": "Latokari",
        "stop_desc": "",
        "stop_lat": 60.42958,
        "stop_lon": 22.21981,
        "zone_id": "F\u00d6LI",
        "stop_url": "",
        "location_type": 0,
        "parent_station": 0,
        "stop_timezone": "Europe\/Helsinki",
        "wheelchair_boarding": 0
    },
    "1280": {
        "stop_code": "1280",
        "stop_name": "J\u00e4rvenp\u00e4\u00e4ntie",
        "stop_desc": "",
        "stop_lat": 60.36977,
        "stop_lon": 22.27627,
        "zone_id": "F\u00d6LI",
        "stop_url": "",
        "location_type": 0,
        "parent_station": 0,
        "stop_timezone": "Europe\/Helsinki",
        "wheelchair_boarding": 0
    },
    "1281": {
        "stop_code": "1281",
        "stop_name": "Orvontie",
        "stop_desc": "",
        "stop_lat": 60.36431,
        "stop_lon": 22.27785,
        "zone_id": "F\u00d6LI",
        "stop_url": "",
        "location_type": 0,
        "parent_station": 0,
        "stop_timezone": "Europe\/Helsinki",
        "wheelchair_boarding": 0
    },
    "1282": {
        "stop_code": "1282",
        "stop_name": "Sinapintie",
        "stop_desc": "",
        "stop_lat": 60.35904,
        "stop_lon": 22.28162,
        "zone_id": "F\u00d6LI",
        "stop_url": "",
        "location_type": 0,
        "parent_station": 0,
        "stop_timezone": "Europe\/Helsinki",
        "wheelchair_boarding": 0
    },
    "1283": {
        "stop_code": "1283",
        "stop_name": "Kenraalintie",
        "stop_desc": "",
        "stop_lat": 60.35627,
        "stop_lon": 22.26916,
        "zone_id": "F\u00d6LI",
        "stop_url": "",
        "location_type": 0,
        "parent_station": 0,
        "stop_timezone": "Europe\/Helsinki",
        "wheelchair_boarding": 0
    },
    "1284": {
        "stop_code": "1284",
        "stop_name": "Aatilan rantatie",
        "stop_desc": "",
        "stop_lat": 60.35384,
        "stop_lon": 22.2535,
        "zone_id": "F\u00d6LI",
        "stop_url": "",
        "location_type": 0,
        "parent_station": 0,
        "stop_timezone": "Europe\/Helsinki",
        "wheelchair_boarding": 0
    },
    "1285": {
        "stop_code": "1285",
        "stop_name": "Lempp\u00e4l\u00e4ntie",
        "stop_desc": "",
        "stop_lat": 60.35405,
        "stop_lon": 22.24721,
        "zone_id": "F\u00d6LI",
        "stop_url": "",
        "location_type": 0,
        "parent_station": 0,
        "stop_timezone": "Europe\/Helsinki",
        "wheelchair_boarding": 0
    },